"city","city_ascii","lat","lng","country","iso2","iso3","admin_name","capital","population","id"
"Tokyo","Tokyo","35.6850","139.7514","Japan","JP","JPN","Tōkyō","primary","35676000","1392685764"
"New York","New York","40.6943","-73.9249","United States","US","USA","New York","","19354922.0","1840034016"
"Mexico City","Mexico City","19.4424","-99.1310","Mexico","MX","MEX","Ciudad de México","primary","19028000","1484247881"
"Mumbai","Mumbai","19.0170","72.8570","India","IN","IND","Mahārāshtra","admin","18978000","1356226629"
"São Paulo","Sao Paulo","-23.5587","-46.6250","Brazil","BR","BRA","São Paulo","admin","18845000","1076532519"
"Delhi","Delhi","28.6700","77.2300","India","IN","IND","Delhi","admin","15926000","1356872604"
"Shanghai","Shanghai","31.2165","121.4365","China","CN","CHN","Shanghai","admin","14987000","1156073548"
"Kolkata","Kolkata","22.4950","88.3247","India","IN","IND","West Bengal","admin","14787000","1356060520"
"Los Angeles","Los Angeles","34.1139","-118.4068","United States","US","USA","California","","12815475.0","1840020491"
"Dhaka","Dhaka","23.7231","90.4086","Bangladesh","BD","BGD","Dhaka","primary","12797394","1050529279"
"Buenos Aires","Buenos Aires","-34.6025","-58.3975","Argentina","AR","ARG","Buenos Aires, Ciudad Autónoma de","primary","12795000","1032717330"
"Karachi","Karachi","24.8700","66.9900","Pakistan","PK","PAK","Sindh","admin","12130000","1586129469"
"Cairo","Cairo","30.0500","31.2500","Egypt","EG","EGY","Al Qāhirah","primary","11893000","1818253931"
"Rio de Janeiro","Rio de Janeiro","-22.9250","-43.2250","Brazil","BR","BRA","Rio de Janeiro","admin","11748000","1076887657"
"Ōsaka","Osaka","34.7500","135.4601","Japan","JP","JPN","Ōsaka","admin","11294000","1392419823"
"Beijing","Beijing","39.9289","116.3883","China","CN","CHN","Beijing","primary","11106000","1156228865"
"Manila","Manila","14.6042","120.9822","Philippines","PH","PHL","Manila","primary","11100000","1608618140"
"Moscow","Moscow","55.7522","37.6155","Russia","RU","RUS","Moskva","primary","10452000","1643318494"
"Istanbul","Istanbul","41.1050","29.0100","Turkey","TR","TUR","İstanbul","admin","10061000","1792756324"
"Paris","Paris","48.8667","2.3333","France","FR","FRA","Île-de-France","primary","9904000","1250015082"
"Seoul","Seoul","37.5663","126.9997","Korea, South","KR","KOR","Seoul","primary","9796000","1410836482"
"Lagos","Lagos","6.4433","3.3915","Nigeria","NG","NGA","Lagos","minor","9466000","1566593751"
"Jakarta","Jakarta","-6.1744","106.8294","Indonesia","ID","IDN","Jakarta","primary","9125000","1360771077"
"Guangzhou","Guangzhou","23.1450","113.3250","China","CN","CHN","Guangdong","admin","8829000","1156237133"
"Chicago","Chicago","41.8373","-87.6862","United States","US","USA","Illinois","","8675982.0","1840000494"
"London","London","51.5000","-0.1167","United Kingdom","GB","GBR","London, City of","primary","8567000","1826645935"
"Lima","Lima","-12.0480","-77.0501","Peru","PE","PER","Lima","primary","8012000","1604728603"
"Tehran","Tehran","35.6719","51.4243","Iran","IR","IRN","Tehrān","primary","7873000","1364305026"
"Kinshasa","Kinshasa","-4.3297","15.3150","Congo (Kinshasa)","CD","COD","Kinshasa","primary","7843000","1180000363"
"Bogotá","Bogota","4.5964","-74.0833","Colombia","CO","COL","Bogotá","primary","7772000","1170483426"
"Shenzhen","Shenzhen","22.5524","114.1221","China","CN","CHN","Guangdong","minor","7581000","1156158707"
"Wuhan","Wuhan","30.5800","114.2700","China","CN","CHN","Hubei","admin","7243000","1156117184"
"Hong Kong","Hong Kong","22.3050","114.1850","Hong Kong","HK","HKG","","","7206000","1344982653"
"Tianjin","Tianjin","39.1300","117.2000","China","CN","CHN","Tianjin","admin","7180000","1156174046"
"Chennai","Chennai","13.0900","80.2800","India","IN","IND","Tamil Nādu ","admin","7163000","1356374944"
"Taipei","Taipei","25.0358","121.5683","Taiwan","TW","TWN","Taipei","primary","6900273","1158881289"
"Bengalūru","Bengaluru","12.9700","77.5600","India","IN","IND","Karnātaka","admin","6787000","1356410365"
"Bangkok","Bangkok","13.7500","100.5166","Thailand","TH","THA","Krung Thep Maha Nakhon","primary","6704000","1764068610"
"Lahore","Lahore","31.5600","74.3500","Pakistan","PK","PAK","Punjab","admin","6577000","1586801463"
"Chongqing","Chongqing","29.5650","106.5950","China","CN","CHN","Chongqing","admin","6461000","1156936556"
"Miami","Miami","25.7839","-80.2102","United States","US","USA","Florida","","6381966.0","1840015149"
"Hyderabad","Hyderabad","17.4000","78.4800","India","IN","IND","Telangana","admin","6376000","1356871768"
"Dallas","Dallas","32.7936","-96.7662","United States","US","USA","Texas","","5733259.0","1840019440"
"Santiago","Santiago","-33.4500","-70.6670","Chile","CL","CHL","Región Metropolitana","primary","5720000","1152554349"
"Philadelphia","Philadelphia","40.0077","-75.1339","United States","US","USA","Pennsylvania","","5637884.0","1840000673"
"Belo Horizonte","Belo Horizonte","-19.9150","-43.9150","Brazil","BR","BRA","Minas Gerais","admin","5575000","1076967355"
"Madrid","Madrid","40.4000","-3.6834","Spain","ES","ESP","Madrid","primary","5567000","1724616994"
"Houston","Houston","29.7869","-95.3905","United States","US","USA","Texas","","5446468.0","1840020925"
"Ahmadābād","Ahmadabad","23.0301","72.5800","India","IN","IND","Gujarāt","minor","5375000","1356304381"
"Ho Chi Minh City","Ho Chi Minh City","10.7800","106.6950","Vietnam","VN","VNM","Hồ Chí Minh","admin","5314000","1704774326"
"Washington","Washington","38.9047","-77.0163","United States","US","USA","District of Columbia","primary","5289420.0","1840006060"
"Atlanta","Atlanta","33.7627","-84.4225","United States","US","USA","Georgia","admin","5228750.0","1840013660"
"Toronto","Toronto","43.7000","-79.4200","Canada","CA","CAN","Ontario","admin","5213000","1124279679"
"Singapore","Singapore","1.2930","103.8558","Singapore","SG","SGP","","primary","5183700","1702341327"
"Luanda","Luanda","-8.8383","13.2344","Angola","AO","AGO","Luanda","primary","5172900","1024949724"
"Baghdad","Baghdad","33.3386","44.3939","Iraq","IQ","IRQ","Baghdād","primary","5054000","1368596238"
"Barcelona","Barcelona","41.3833","2.1834","Spain","ES","ESP","Catalonia","admin","4920000","1724594040"
"Hāora","Haora","22.5804","88.3299","India","IN","IND","West Bengal","","4841638","1356986516"
"Shenyang","Shenyang","41.8050","123.4500","China","CN","CHN","Liaoning","admin","4787000","1156309382"
"Khartoum","Khartoum","15.5881","32.5342","Sudan","SD","SDN","Khartoum","primary","4754000","1729268475"
"Pune","Pune","18.5300","73.8500","India","IN","IND","Mahārāshtra","","4672000","1356081074"
"Boston","Boston","42.3188","-71.0846","United States","US","USA","Massachusetts","admin","4637537.0","1840000455"
"Sydney","Sydney","-33.9200","151.1852","Australia","AU","AUS","New South Wales","admin","4630000","1036074917"
"Saint Petersburg","Saint Petersburg","59.9390","30.3160","Russia","RU","RUS","Sankt-Peterburg","admin","4553000","1643616350"
"Chittagong","Chittagong","22.3300","91.8000","Bangladesh","BD","BGD","Chittagong","admin","4529000","1050830722"
"Dongguan","Dongguan","23.0489","113.7447","China","CN","CHN","Guangdong","minor","4528000","1156478242"
"Riyadh","Riyadh","24.6408","46.7727","Saudi Arabia","SA","SAU","Ar Riyāḑ","primary","4465000","1682999334"
"Hanoi","Hanoi","21.0333","105.8500","Vietnam","VN","VNM","Hà Nội","primary","4378000","1704413791"
"Guadalajara","Guadalajara","20.6700","-103.3300","Mexico","MX","MEX","Jalisco","admin","4198000","1484950208"
"Melbourne","Melbourne","-37.8200","144.9750","Australia","AU","AUS","Victoria","admin","4170000","1036533631"
"Alexandria","Alexandria","31.2000","29.9500","Egypt","EG","EGY","Al Iskandarīyah","admin","4165000","1818695837"
"Chengdu","Chengdu","30.6700","104.0700","China","CN","CHN","Sichuan","admin","4123000","1156421555"
"Rangoon","Rangoon","16.7834","96.1667","Burma","MM","MMR","Yangon","primary","4088000","1104616656"
"Phoenix","Phoenix","33.5722","-112.0891","United States","US","USA","Arizona","admin","4081849.0","1840020568"
"Xi’an","Xi'an","34.2750","108.8950","China","CN","CHN","Shaanxi","admin","4009000","1156244079"
"Porto Alegre","Porto Alegre","-30.0500","-51.2000","Brazil","BR","BRA","Rio Grande do Sul","admin","3917000","1076658221"
"Sūrat","Surat","21.2000","72.8400","India","IN","IND","Gujarāt","","3842000","1356758738"
"Hechi","Hechi","23.0965","109.6091","China","CN","CHN","Guangxi","","3830000","1156868701"
"Abidjan","Abidjan","5.3200","-4.0400","Côte D’Ivoire","CI","CIV","Abidjan","primary","3802000","1384207980"
"Brasília","Brasilia","-15.7833","-47.9161","Brazil","BR","BRA","Distrito Federal","primary","3716996","1076144436"
"Ankara","Ankara","39.9272","32.8644","Turkey","TR","TUR","Ankara","primary","3716000","1792572891"
"Monterrey","Monterrey","25.6700","-100.3300","Mexico","MX","MEX","Nuevo León","admin","3712000","1484559591"
"Yokohama","Yokohama","35.3200","139.5800","Japan","JP","JPN","Kanagawa","admin","3697894","1392118339"
"Nanjing","Nanjing","32.0500","118.7800","China","CN","CHN","Jiangsu","admin","3679000","1156644065"
"Montréal","Montreal","45.5000","-73.5833","Canada","CA","CAN","Québec","","3678000","1124586170"
"Guiyang","Guiyang","26.5800","106.7200","China","CN","CHN","Guizhou","admin","3662000","1156932620"
"Recife","Recife","-8.0756","-34.9156","Brazil","BR","BRA","Pernambuco","admin","3651000","1076137337"
"Seattle","Seattle","47.6211","-122.3244","United States","US","USA","Washington","","3643765.0","1840021117"
"Harbin","Harbin","45.7500","126.6500","China","CN","CHN","Heilongjiang","admin","3621000","1156241528"
"San Francisco","San Francisco","37.7562","-122.4430","United States","US","USA","California","","3603761.0","1840021543"
"Fortaleza","Fortaleza","-3.7500","-38.5800","Brazil","BR","BRA","Ceará","admin","3602319","1076567885"
"Zhangzhou","Zhangzhou","24.5204","117.6700","China","CN","CHN","Fujian","minor","3531147","1156241637"
"Detroit","Detroit","42.3834","-83.1024","United States","US","USA","Michigan","","3522206.0","1840003971"
"Salvador","Salvador","-12.9700","-38.4800","Brazil","BR","BRA","Bahia","admin","3484000","1076923789"
"Busan","Busan","35.0951","129.0100","Korea, South","KR","KOR","Busan","admin","3480000","1410601465"
"Johannesburg","Johannesburg","-26.1700","28.0300","South Africa","ZA","ZAF","Gauteng","admin","3435000","1710550792"
"Berlin","Berlin","52.5218","13.4015","Germany","DE","DEU","Berlin","primary","3406000","1276451290"
"Algiers","Algiers","36.7631","3.0506","Algeria","DZ","DZA","Alger","primary","3354000","1012973369"
"Rome","Rome","41.8960","12.4833","Italy","IT","ITA","Lazio","primary","3339000","1380382862"
"Pyongyang","Pyongyang","39.0194","125.7547","Korea, North","KP","PRK","P’yŏngyang","primary","3300000","1408738594"
"Medellín","Medellin","6.2750","-75.5750","Colombia","CO","COL","Antioquia","admin","3297000","1170680389"
"Kabul","Kabul","34.5167","69.1833","Afghanistan","AF","AFG","Kābul","primary","3277000","1004993580"
"Athens","Athens","37.9833","23.7333","Greece","GR","GRC","Attikí","primary","3242000","1300715560"
"Nagoya","Nagoya","35.1550","136.9150","Japan","JP","JPN","Aichi","admin","3230000","1392407472"
"Cape Town","Cape Town","-33.9200","18.4350","South Africa","ZA","ZAF","Western Cape","primary","3215000","1710680650"
"San Diego","San Diego","32.8312","-117.1225","United States","US","USA","California","","3210314.0","1840021990"
"Changchun","Changchun","43.8650","125.3400","China","CN","CHN","Jilin","admin","3183000","1156078103"
"Casablanca","Casablanca","33.6000","-7.6164","Morocco","MA","MAR","Casablanca-Settat","admin","3181000","1504175315"
"Dalian","Dalian","38.9228","121.6298","China","CN","CHN","Liaoning","","3167000","1156175472"
"Cawnpore","Cawnpore","26.4600","80.3200","India","IN","IND","Uttar Pradesh","","3162000","1356575238"
"Kano","Kano","12.0000","8.5200","Nigeria","NG","NGA","Kano","admin","3140000","1566422868"
"Tel Aviv-Yafo","Tel Aviv-Yafo","32.0800","34.7700","Israel","IL","ISR","Tel Aviv","admin","3112000","1376401542"
"Addis Ababa","Addis Ababa","9.0333","38.7000","Ethiopia","ET","ETH","Ādīs Ābeba","primary","3100000","1231824991"
"Curitiba","Curitiba","-25.4200","-49.3200","Brazil","BR","BRA","Paraná","admin","3084000","1076701712"
"Zibo","Zibo","36.8000","118.0500","China","CN","CHN","Shandong","","3061000","1156381094"
"Jeddah","Jeddah","21.5169","39.2192","Saudi Arabia","SA","SAU","Makkah al Mukarramah","","3012000","1682926944"
"Nairobi","Nairobi","-1.2833","36.8167","Kenya","KE","KEN","Nairobi City","primary","3010000","1404000661"
"Hangzhou","Hangzhou","30.2500","120.1700","China","CN","CHN","Zhejiang","admin","3007000","1156275243"
"Benoni","Benoni","-26.1496","28.3299","South Africa","ZA","ZAF","Gauteng","","2986000","1710880986"
"Caracas","Caracas","10.5010","-66.9170","Venezuela","VE","VEN","Distrito Capital","primary","2985000","1862748204"
"Milan","Milan","45.4700","9.2050","Italy","IT","ITA","Lombardy","admin","2945000","1380724377"
"Stuttgart","Stuttgart","48.7800","9.2000","Germany","DE","DEU","Baden-Württemberg","admin","2944700","1276171358"
"Kunming","Kunming","25.0700","102.6800","China","CN","CHN","Yunnan","admin","2931000","1156477539"
"Dar es Salaam","Dar es Salaam","-6.8000","39.2683","Tanzania","TZ","TZA","Dar es Salaam","primary","2930000","1834843853"
"Minneapolis","Minneapolis","44.9635","-93.2678","United States","US","USA","Minnesota","","2926757.0","1840007830"
"Jaipur","Jaipur","26.9211","75.8100","India","IN","IND","Rājasthān","admin","2917000","1356293537"
"Taiyuan","Taiyuan","37.8750","112.5451","China","CN","CHN","Shanxi","admin","2913000","1156632014"
"Frankfurt","Frankfurt","50.1000","8.6750","Germany","DE","DEU","Hesse","minor","2895000","1276054552"
"Qingdao","Qingdao","36.0900","120.3300","China","CN","CHN","Shandong","minor","2866000","1156112588"
"Surabaya","Surabaya","-7.2492","112.7508","Indonesia","ID","IDN","Jawa Timur","admin","2845000","1360484663"
"Lisbon","Lisbon","38.7227","-9.1449","Portugal","PT","PRT","Lisboa","primary","2812000","1620619017"
"Tampa","Tampa","27.9942","-82.4451","United States","US","USA","Florida","","2804240.0","1840015982"
"Jinan","Jinan","36.6750","116.9950","China","CN","CHN","Shandong","admin","2798000","1156972469"
"Fukuoka","Fukuoka","33.5950","130.4100","Japan","JP","JPN","Fukuoka","admin","2792000","1392576294"
"Campinas","Campinas","-22.9000","-47.1000","Brazil","BR","BRA","São Paulo","","2791000","1076145766"
"Denver","Denver","39.7621","-104.8759","United States","US","USA","Colorado","admin","2787266.0","1840018789"
"Kaohsiung","Kaohsiung","22.6333","120.2666","Taiwan","TW","TWN","Kaohsiung","admin","2769072","1158331334"
"Quezon City","Quezon City","14.6504","121.0300","Philippines","PH","PHL","Quezon","admin","2761720","1608974097"
"Katowice","Katowice","50.2604","19.0200","Poland","PL","POL","Śląskie","admin","2746000","1616798495"
"Aleppo","Aleppo","36.2300","37.1700","Syria","SY","SYR","Ḩalab","admin","2738000","1760366651"
"Durban","Durban","-29.8650","30.9800","South Africa","ZA","ZAF","KwaZulu-Natal","","2729000","1710149138"
"Kyiv","Kyiv","50.4334","30.5166","Ukraine","UA","UKR","Kyyiv, Misto","primary","2709000","1804382913"
"Lucknow","Lucknow","26.8550","80.9150","India","IN","IND","Uttar Pradesh","admin","2695000","1356891790"
"Giza","Giza","30.0100","31.1900","Egypt","EG","EGY","Al Jīzah","admin","2681863","1818925479"
"Zhengzhou","Zhengzhou","34.7550","113.6651","China","CN","CHN","Henan","admin","2636000","1156183137"
"Taichung","Taichung","24.1521","120.6817","Taiwan","TW","TWN","Taichung","admin","2629323","1158689622"
"Brooklyn","Brooklyn","40.6501","-73.9496","United States","US","USA","New York","","2629150","1840034030"
"Ibadan","Ibadan","7.3800","3.9300","Nigeria","NG","NGA","Oyo","admin","2628000","1566366407"
"Faisalabad","Faisalabad","31.4100","73.1100","Pakistan","PK","PAK","Punjab","minor","2617000","1586323916"
"Fuzhou","Fuzhou","26.0800","119.3000","China","CN","CHN","Fujian","admin","2606000","1156188037"
"Changsha","Changsha","28.2000","112.9700","China","CN","CHN","Hunan","admin","2604000","1156961497"
"Dakar","Dakar","14.7158","-17.4731","Senegal","SN","SEN","Dakar","primary","2604000","1686604760"
"İzmir","Izmir","38.4361","27.1518","Turkey","TR","TUR","İzmir","admin","2587000","1792725579"
"Xiangtan","Xiangtan","27.8504","112.9000","China","CN","CHN","Hunan","","2586948","1156195684"
"Lanzhou","Lanzhou","36.0560","103.7920","China","CN","CHN","Gansu","admin","2561000","1156280566"
"Incheon","Incheon","37.4761","126.6422","Korea, South","KR","KOR","Incheon","admin","2550000","1410160313"
"Sapporo","Sapporo","43.0750","141.3400","Japan","JP","JPN","Hokkaidō","admin","2544000","1392000195"
"Xiamen","Xiamen","24.4500","118.0800","China","CN","CHN","Fujian","minor","2519000","1156212809"
"Guayaquil","Guayaquil","-2.2200","-79.9200","Ecuador","EC","ECU","Guayas","admin","2514000","1218802178"
"George Town","George Town","5.4136","100.3294","Malaysia","MY","MYS","Pulau Pinang","admin","2500000","1458236750"
"Mashhad","Mashhad","36.2700","59.5700","Iran","IR","IRN","Khorāsān-e Raẕavī","admin","2469000","1364123206"
"Damascus","Damascus","33.5000","36.3000","Syria","SY","SYR","Dimashq","primary","2466000","1760685964"
"Daegu","Daegu","35.8668","128.6070","Korea, South","KR","KOR","Daegu","admin","2460000","1410095252"
"Nāgpur","Nagpur","21.1700","79.0900","India","IN","IND","Mahārāshtra","","2454000","1356365743"
"Lianshan","Lianshan","40.7503","120.8300","China","CN","CHN","Liaoning","minor","2426000","1156046704"
"Shijiazhuang","Shijiazhuang","38.0500","114.4800","China","CN","CHN","Hebei","admin","2417000","1156217541"
"Tunis","Tunis","36.8028","10.1797","Tunisia","TN","TUN","Tunis","primary","2412500","1788742103"
"Vienna","Vienna","48.2000","16.3666","Austria","AT","AUT","Wien","primary","2400000","1040261752"
"Jilin","Jilin","43.8500","126.5500","China","CN","CHN","Jilin","","2396000","1156646448"
"Omdurman","Omdurman","15.6167","32.4800","Sudan","SD","SDN","Khartoum","","2395159","1729912179"
"Bandung","Bandung","-6.9500","107.5700","Indonesia","ID","IDN","Jawa Barat","admin","2394000","1360313023"
"Bekasi","Bekasi","-6.2173","106.9723","Indonesia","ID","IDN","Jawa Barat","","2378211","1360006015"
"Mannheim","Mannheim","49.5004","8.4700","Germany","DE","DEU","Baden-Württemberg","minor","2362000","1276150104"
"Nanchang","Nanchang","28.6800","115.8800","China","CN","CHN","Jiangxi","admin","2350000","1156198892"
"Wenzhou","Wenzhou","28.0200","120.6501","China","CN","CHN","Zhejiang","","2350000","1156188829"
"Queens","Queens","40.7498","-73.7976","United States","US","USA","New York","","2333054","1840034002"
"Vancouver","Vancouver","49.2734","-123.1216","Canada","CA","CAN","British Columbia","","2313328","1124825478"
"Birmingham","Birmingham","52.4750","-1.9200","United Kingdom","GB","GBR","Birmingham","admin","2285000","1826423213"
"Cali","Cali","3.4000","-76.5000","Colombia","CO","COL","Valle del Cauca","admin","2254000","1170417589"
"Naples","Naples","40.8400","14.2450","Italy","IT","ITA","Campania","admin","2250000","1380646673"
"Sendai","Sendai","38.2871","141.0217","Japan","JP","JPN","Miyagi","admin","2250000","1392457903"
"Manchester","Manchester","53.5004","-2.2480","United Kingdom","GB","GBR","Manchester","admin","2230000","1826246335"
"Puebla","Puebla","19.0500","-98.2000","Mexico","MX","MEX","Puebla","admin","2195000","1484416394"
"Tripoli","Tripoli","32.8925","13.1800","Libya","LY","LBY","Ţarābulus","primary","2189000","1434201852"
"Tashkent","Tashkent","41.3117","69.2949","Uzbekistan","UZ","UZB","Toshkent","primary","2184000","1860331871"
"Havana","Havana","23.1320","-82.3642","Cuba","CU","CUB","La Habana","primary","2174000","1192752771"
"Gaoping","Gaoping","30.7804","106.1300","China","CN","CHN","Sichuan","minor","2174000","1156522457"
"Baltimore","Baltimore","39.3051","-76.6144","United States","US","USA","Maryland","","2170504.0","1840001592"
"Nanning","Nanning","22.8200","108.3200","China","CN","CHN","Guangxi","admin","2167000","1156605439"
"Belém","Belem","-1.4500","-48.4800","Brazil","BR","BRA","Pará","admin","2167000","1076646823"
"Patna","Patna","25.6250","85.1300","India","IN","IND","Bihār","admin","2158000","1356821429"
"Santo Domingo","Santo Domingo","18.4701","-69.9001","Dominican Republic","DO","DOM","Ozama","primary","2154000","1214636202"
"Ürümqi","Urumqi","43.8050","87.5750","China","CN","CHN","Xinjiang","admin","2151000","1156051276"
"Zaozhuang","Zaozhuang","34.8800","117.5700","China","CN","CHN","Shandong","","2145000","1156796454"
"Baku","Baku","40.3953","49.8622","Azerbaijan","AZ","AZE","Bakı","primary","2122300","1031946365"
"Accra","Accra","5.5500","-0.2167","Ghana","GH","GHA","Greater Accra","primary","2121000","1288299415"
"Yantai","Yantai","37.5304","121.4000","China","CN","CHN","Shandong","","2116000","1156932948"
"Medan","Medan","3.5800","98.6500","Indonesia","ID","IDN","Sumatera Utara","admin","2115000","1360543171"
"Santa Cruz","Santa Cruz","-17.7539","-63.2260","Bolivia","BO","BOL","Santa Cruz","","2102998","1068002564"
"Tongshan","Tongshan","34.2800","117.1800","China","CN","CHN","Jiangsu","minor","2091000","1156241678"
"Riverside","Riverside","33.9381","-117.3948","United States","US","USA","California","","2084749.0","1840020551"
"Linyi","Linyi","35.0800","118.3300","China","CN","CHN","Shandong","","2082000","1156086320"
"St. Louis","St. Louis","38.6358","-90.2451","United States","US","USA","Missouri","","2078283.0","1840001651"
"Las Vegas","Las Vegas","36.2333","-115.2654","United States","US","USA","Nevada","","2073045.0","1840020364"
"Maracaibo","Maracaibo","10.7300","-71.6600","Venezuela","VE","VEN","Zulia","admin","2072000","1862072711"
"Kuwait City","Kuwait City","29.3697","47.9783","Kuwait","KW","KWT","Al ‘Āşimah","primary","2063000","1414102075"
"Ad Dammām","Ad Dammam","26.4282","50.0997","Saudi Arabia","SA","SAU","Ash Sharqīyah","admin","2054710","1682452296"
"Portland","Portland","45.5371","-122.6500","United States","US","USA","Oregon","","2052796.0","1840019941"
"Haikou","Haikou","20.0500","110.3200","China","CN","CHN","Hainan","admin","2046189","1156183327"
"Hiroshima","Hiroshima","34.3878","132.4429","Japan","JP","JPN","Hiroshima","admin","2045000","1392373695"
"Baotou","Baotou","40.6522","109.8220","China","CN","CHN","Inner Mongolia","","2036000","1156032751"
"Hefei","Hefei","31.8500","117.2800","China","CN","CHN","Anhui","admin","2035000","1156332710"
"Indore","Indore","22.7151","75.8650","India","IN","IND","Madhya Pradesh","","2026000","1356402812"
"Goiânia","Goiania","-16.7200","-49.3000","Brazil","BR","BRA","Goiás","admin","2022000","1076034054"
"Sanaa","Sanaa","15.3547","44.2066","Yemen","YE","YEM","Amānat al ‘Āşimah","primary","2008000","1887750814"
"San Antonio","San Antonio","29.4658","-98.5254","United States","US","USA","Texas","","2002530.0","1840022220"
"Port-au-Prince","Port-au-Prince","18.5410","-72.3360","Haiti","HT","HTI","Ouest","primary","1998000","1332401940"
"Haiphong","Haiphong","20.8300","106.6801","Vietnam","VN","VNM","Hải Phòng","admin","1969000","1704000623"
"Suzhou","Suzhou","33.6361","116.9789","China","CN","CHN","Anhui","","1964000","1156871297"
"Nanyang","Nanyang","33.0004","112.5300","China","CN","CHN","Henan","","1944000","1156192287"
"Bucharest","Bucharest","44.4334","26.0999","Romania","RO","ROU","Bucureşti","primary","1942000","1642414442"
"Ningbo","Ningbo","29.8800","121.5500","China","CN","CHN","Zhejiang","minor","1923000","1156170787"
"Douala","Douala","4.0604","9.7100","Cameroon","CM","CMR","Littoral","admin","1906000","1120494607"
"Tangshan","Tangshan","39.6243","118.1944","China","CN","CHN","Hebei","","1879000","1156904299"
"Tainan","Tainan","23.0000","120.2000","Taiwan","TW","TWN","Tainan","admin","1876312","1158061376"
"Xiping","Xiping","40.0800","113.3000","China","CN","CHN","Shanxi","minor","1873000","1156898522"
"Asunción","Asuncion","-25.2964","-57.6415","Paraguay","PY","PRY","Asunción","primary","1870000","1600057911"
"Saidu Sharif","Saidu Sharif","34.7500","72.3500","Pakistan","PK","PAK","Khyber Pakhtunkhwa","minor","1860310","1586619596"
"Brisbane","Brisbane","-27.4550","153.0351","Australia","AU","AUS","Queensland","admin","1860000","1036192929"
"Rawalpindi","Rawalpindi","33.6000","73.0400","Pakistan","PK","PAK","Punjab","minor","1858000","1586344001"
"Sacramento","Sacramento","38.5667","-121.4683","United States","US","USA","California","admin","1854698.0","1840021491"
"Beirut","Beirut","33.8720","35.5097","Lebanon","LB","LBN","Beyrouth","primary","1846000","1422847713"
"San Jose","San Jose","37.3021","-121.8489","United States","US","USA","California","","1821899.0","1840021570"
"Minsk","Minsk","53.9000","27.5666","Belarus","BY","BLR","Minsk","primary","1805000","1112348503"
"Kyōto","Kyoto","35.0300","135.7500","Japan","JP","JPN","Kyōto","admin","1805000","1392622735"
"Barranquilla","Barranquilla","10.9600","-74.8000","Colombia","CO","COL","Atlántico","admin","1798000","1170179113"
"Orlando","Orlando","28.4772","-81.3369","United States","US","USA","Florida","","1776841.0","1840015099"
"Shuyangzha","Shuyangzha","34.1299","118.7734","China","CN","CHN","Jiangsu","","1770000","1156051957"
"Valencia","Valencia","10.2300","-67.9800","Venezuela","VE","VEN","Carabobo","admin","1770000","1862309871"
"Hamburg","Hamburg","53.5500","10.0000","Germany","DE","DEU","Hamburg","admin","1757000","1276041799"
"Vadodara","Vadodara","22.3100","73.1800","India","IN","IND","Gujarāt","","1756000","1356705249"
"Manaus","Manaus","-3.1000","-60.0000","Brazil","BR","BRA","Amazonas","admin","1753000","1076607274"
"Shangqiu","Shangqiu","34.4504","115.6500","China","CN","CHN","Henan","","1753000","1156805441"
"Wuxi","Wuxi","31.5800","120.3000","China","CN","CHN","Jiangsu","minor","1749000","1156019650"
"Palembang","Palembang","-2.9800","104.7500","Indonesia","ID","IDN","Sumatera Selatan","admin","1749000","1360902897"
"Brussels","Brussels","50.8333","4.3333","Belgium","BE","BEL","Brussels-Capital Region","primary","1743000","1056469830"
"Essen","Essen","51.4500","7.0166","Germany","DE","DEU","North Rhine-Westphalia","minor","1742135","1276769247"
"Cleveland","Cleveland","41.4767","-81.6805","United States","US","USA","Ohio","","1730363.0","1840000596"
"Bhopal","Bhopal","23.2500","77.4100","India","IN","IND","Madhya Pradesh","admin","1727000","1356734039"
"Hohhot","Hohhot","40.8200","111.6600","China","CN","CHN","Inner Mongolia","admin","1726000","1156210167"
"Pittsburgh","Pittsburgh","40.4396","-79.9763","United States","US","USA","Pennsylvania","","1715297.0","1840001254"
"Luoyang","Luoyang","34.6800","112.4701","China","CN","CHN","Henan","","1715000","1156069315"
"Santos","Santos","-23.9537","-46.3329","Brazil","BR","BRA","São Paulo","","1709000","1076033299"
"Jingling","Jingling","30.6501","113.1600","China","CN","CHN","Hubei","","1708000","1156060544"
"Warsaw","Warsaw","52.2500","21.0000","Poland","PL","POL","Mazowieckie","primary","1707000","1616024847"
"Rabat","Rabat","34.0253","-6.8361","Morocco","MA","MAR","Rabat-Salé-Kénitra","primary","1705000","1504023252"
"Vitória","Vitoria","-20.3240","-40.3660","Brazil","BR","BRA","Espírito Santo","admin","1704000","1076376829"
"Quito","Quito","-0.2150","-78.5001","Ecuador","EC","ECU","Pichincha","primary","1701000","1218441993"
"Antananarivo","Antananarivo","-18.9166","47.5166","Madagascar","MG","MDG","Antananarivo","primary","1697000","1450978461"
"Coimbatore","Coimbatore","11.0000","76.9500","India","IN","IND","Tamil Nādu ","","1696000","1356999503"
"Daqing","Daqing","46.5800","125.0000","China","CN","CHN","Heilongjiang","","1693000","1156403962"
"Lu’an","Lu'an","31.7503","116.4800","China","CN","CHN","Anhui","minor","1690000","1156499624"
"Sanzhou","Sanzhou","30.8200","108.4000","China","CN","CHN","Chongqing","","1680000","1156025536"
"Budapest","Budapest","47.5000","19.0833","Hungary","HU","HUN","Budapest","primary","1679000","1348611435"
"Turin","Turin","45.0704","7.6700","Italy","IT","ITA","Piedmont","admin","1652000","1380244627"
"Suzhou","Suzhou","31.3005","120.6200","China","CN","CHN","Jiangsu","minor","1650000","1156029196"
"Ludhiāna","Ludhiana","30.9278","75.8723","India","IN","IND","Punjab","","1649000","1356929498"
"Cincinnati","Cincinnati","39.1412","-84.5060","United States","US","USA","Ohio","","1648254.0","1840003814"
"Kumasi","Kumasi","6.6900","-1.6300","Ghana","GH","GHA","Ashanti","admin","1646000","1288181103"
"Manhattan","Manhattan","40.7834","-73.9662","United States","US","USA","New York","","1643734","1840034000"
"Qiqihar","Qiqihar","47.3450","123.9900","China","CN","CHN","Heilongjiang","minor","1641000","1156775905"
"Anshan","Anshan","41.1150","122.9400","China","CN","CHN","Liaoning","","1639000","1156901825"
"Austin","Austin","30.3006","-97.7517","United States","US","USA","Texas","admin","1638716.0","1840019590"
"Zhongli","Zhongli","24.9650","121.2168","Taiwan","TW","TWN","Taoyuan","","1632616","1158025380"
"Handan","Handan","36.5800","114.4800","China","CN","CHN","Hebei","","1631000","1156957080"
"Tai’an","Tai'an","36.2000","117.1201","China","CN","CHN","Shandong","","1629000","1156095188"
"Eşfahān","Esfahan","32.7000","51.7000","Iran","IR","IRN","Eşfahān","admin","1628000","1364023865"
"Kansas City","Kansas City","39.1239","-94.5541","United States","US","USA","Missouri","","1615621.0","1840008535"
"Yaoundé","Yaounde","3.8667","11.5167","Cameroon","CM","CMR","Centre","primary","1611000","1120298240"
"Shantou","Shantou","23.3700","116.6700","China","CN","CHN","Guangdong","minor","1601000","1156457499"
"Āgra","Agra","27.1704","78.0150","India","IN","IND","Uttar Pradesh","","1592000","1356187395"
"Zhanjiang","Zhanjiang","21.2000","110.3800","China","CN","CHN","Guangdong","minor","1590000","1156502170"
"La Paz","La Paz","-16.4980","-68.1500","Bolivia","BO","BOL","La Paz","primary","1590000","1068000064"
"Kalyān","Kalyan","19.2502","73.1602","India","IN","IND","Mahārāshtra","","1576614","1356172246"
"Abuja","Abuja","9.0833","7.5333","Nigeria","NG","NGA","Federal Capital Territory","primary","1576000","1566342270"
"Harare","Harare","-17.8178","31.0447","Zimbabwe","ZW","ZWE","Harare","primary","1572000","1716196799"
"Indianapolis","Indianapolis","39.7771","-86.1458","United States","US","USA","Indiana","admin","1564699.0","1840030084"
"Xiantao","Xiantao","30.3704","113.4400","China","CN","CHN","Hubei","","1556000","1156216927"
"Khulna","Khulna","22.8400","89.5600","Bangladesh","BD","BGD","Khulna","admin","1553000","1050667339"
"Weifang","Weifang","36.7204","119.1001","China","CN","CHN","Shandong","","1553000","1156912965"
"Tijuana","Tijuana","32.5000","-117.0800","Mexico","MX","MEX","Baja California","minor","1553000","1484708778"
"Santiago","Santiago","19.5000","-70.6700","Dominican Republic","DO","DOM","Cibao Norte","admin","1550753","1214985348"
"Xinyang","Xinyang","32.1304","114.0700","China","CN","CHN","Henan","","1541000","1156273453"
"Luzhou","Luzhou","28.8800","105.3800","China","CN","CHN","Sichuan","minor","1537000","1156582079"
"Perth","Perth","-31.9550","115.8400","Australia","AU","AUS","Western Australia","admin","1532000","1036178956"
"Toluca","Toluca","19.3304","-99.6700","Mexico","MX","MEX","México","admin","1531000","1484124846"
"Vishākhapatnam","Vishakhapatnam","17.7300","83.3050","India","IN","IND","Andhra Pradesh","","1529000","1356692563"
"Leeds","Leeds","53.8300","-1.5800","United Kingdom","GB","GBR","Leeds","admin","1529000","1826343963"
"Kōbe","Kobe","34.6800","135.1700","Japan","JP","JPN","Hyōgo","admin","1528478","1392978082"
"Columbus","Columbus","39.9860","-82.9851","United States","US","USA","Ohio","admin","1528314.0","1840003760"
"Multan","Multan","30.2000","71.4550","Pakistan","PK","PAK","Punjab","minor","1522000","1586256291"
"Kochi","Kochi","10.0150","76.2239","India","IN","IND","Kerala","","1519000","1356707865"
"Montevideo","Montevideo","-34.8580","-56.1711","Uruguay","UY","URY","Montevideo","primary","1513000","1858107000"
"Gujranwala","Gujranwala","32.1604","74.1850","Pakistan","PK","PAK","Punjab","minor","1513000","1586400472"
"Niterói","Niteroi","-22.9000","-43.1000","Brazil","BR","BRA","Rio de Janeiro","","1500513","1076501425"
"Ganzhou","Ganzhou","25.9200","114.9500","China","CN","CHN","Jiangxi","minor","1500000","1156832475"
"Florence","Florence","43.7800","11.2500","Italy","IT","ITA","Tuscany","admin","1500000","1380726561"
"Liuzhou","Liuzhou","24.2800","109.2500","China","CN","CHN","Guangxi","minor","1497000","1156360785"
"Bamako","Bamako","12.6500","-8.0000","Mali","ML","MLI","Bamako","primary","1494000","1466965925"
"Conakry","Conakry","9.5315","-13.6802","Guinea","GN","GIN","Conakry","primary","1494000","1324568159"
"Bursa","Bursa","40.2000","29.0700","Turkey","TR","TUR","Bursa","admin","1492000","1792903330"
"León de los Aldama","Leon de los Aldama","21.1500","-101.7000","Mexico","MX","MEX","Guanajuato","minor","1488000","1484811199"
"Virginia Beach","Virginia Beach","36.7335","-76.0435","United States","US","USA","Virginia","","1480383.0","1840003871"
"Nāsik","Nasik","20.0004","73.7800","India","IN","IND","Mahārāshtra","","1473000","1356562598"
"Fushun","Fushun","41.8654","123.8700","China","CN","CHN","Liaoning","","1470000","1156857743"
"Changde","Changde","29.0300","111.6800","China","CN","CHN","Hunan","minor","1469000","1156449091"
"Daejeon","Daejeon","36.3355","127.4250","Korea, South","KR","KOR","Daejeon","admin","1468000","1410993875"
"Charlotte","Charlotte","35.2079","-80.8304","United States","US","USA","North Carolina","","1467362.0","1840014557"
"Phnom Penh","Phnom Penh","11.5500","104.9166","Cambodia","KH","KHM","Phnom Penh","primary","1466000","1116260534"
"Neijiang","Neijiang","29.5804","105.0500","China","CN","CHN","Sichuan","minor","1466000","1156516335"
"Quanzhou","Quanzhou","24.9000","118.5800","China","CN","CHN","Fujian","minor","1463000","1156829655"
"Kharkiv","Kharkiv","50.0000","36.2500","Ukraine","UA","UKR","Kharkivs’ka Oblast’","admin","1461000","1804588111"
"Hyderabad City","Hyderabad City","25.3800","68.3750","Pakistan","PK","PAK","Sindh","","1459000","1586427790"
"Bronx","Bronx","40.8501","-73.8662","United States","US","USA","New York","","1455720","1840033999"
"Lomé","Lome","6.1319","1.2228","Togo","TG","TGO","Maritime","primary","1452000","1768409132"
"Córdoba","Cordoba","-31.4000","-64.1823","Argentina","AR","ARG","Córdoba","admin","1452000","1032803249"
"Huainan","Huainan","32.6300","116.9800","China","CN","CHN","Anhui","","1451000","1156877299"
"Doha","Doha","25.2866","51.5330","Qatar","QA","QAT","Ad Dawḩah","primary","1450000","1634459660"
"Kuala Lumpur","Kuala Lumpur","3.1667","101.7000","Malaysia","MY","MYS","Kuala Lumpur ","primary","1448000","1458988644"
"Maputo","Maputo","-25.9553","32.5892","Mozambique","MZ","MOZ","Maputo","primary","1446000","1508074843"
"Kaduna","Kaduna","10.5200","7.4400","Nigeria","NG","NGA","Kaduna","admin","1442000","1566368729"
"Gwangju","Gwangju","35.1710","126.9104","Korea, South","KR","KOR","Gwangju","admin","1440000","1410000087"
"Kawanakajima","Kawanakajima","35.5300","139.7050","Japan","JP","JPN","Kanagawa","","1437266","1392879600"
"San Salvador","San Salvador","13.7100","-89.2030","El Salvador","SV","SLV","San Salvador","primary","1433000","1222647454"
"Suining","Suining","30.5333","105.5333","China","CN","CHN","Sichuan","minor","1425000","1156655650"
"Lyon","Lyon","45.7700","4.8300","France","FR","FRA","Auvergne-Rhône-Alpes","admin","1423000","1250196189"
"Karaj","Karaj","35.8004","50.9700","Iran","IR","IRN","Alborz","admin","1423000","1364258511"
"Kampala","Kampala","0.3167","32.5833","Uganda","UG","UGA","Kampala","primary","1420000","1800406299"
"Tabrīz","Tabriz","38.0863","46.3012","Iran","IR","IRN","Āz̄arbāyjān-e Sharqī","admin","1413000","1364141756"
"The Hague","The Hague","52.0800","4.2700","Netherlands","NL","NLD","Zuid-Holland","primary","1406000","1528799905"
"Davao","Davao","7.1100","125.6300","Philippines","PH","PHL","Davao","admin","1402000","1608906877"
"Marseille","Marseille","43.2900","5.3750","France","FR","FRA","Provence-Alpes-Côte d’Azur","admin","1400000","1250774071"
"Meerut","Meerut","29.0004","77.7000","India","IN","IND","Uttar Pradesh","","1398000","1356390476"
"Mianyang","Mianyang","31.4700","104.7700","China","CN","CHN","Sichuan","minor","1396000","1156417758"
"Semarang","Semarang","-6.9666","110.4200","Indonesia","ID","IDN","Jawa Tengah","admin","1396000","1360745537"
"Farīdābād","Faridabad","28.4333","77.3167","India","IN","IND","Haryāna","","1394000","1356013205"
"Novosibirsk","Novosibirsk","55.0300","82.9600","Russia","RU","RUS","Novosibirskaya Oblast’","admin","1389000","1643399240"
"Mecca","Mecca","21.4300","39.8200","Saudi Arabia","SA","SAU","Makkah al Mukarramah","admin","1385000","1682169241"
"Dubai","Dubai","25.2300","55.2800","United Arab Emirates","AE","ARE","Dubayy","admin","1379000","1784736618"
"Milwaukee","Milwaukee","43.0642","-87.9673","United States","US","USA","Wisconsin","","1377808.0","1840003046"
"Auckland","Auckland","-36.8481","174.7630","New Zealand","NZ","NZL","Auckland","admin","1377200","1554435911"
"Ma’anshan","Ma'anshan","31.7304","118.4800","China","CN","CHN","Anhui","minor","1366302","1156847452"
"Brazzaville","Brazzaville","-4.2592","15.2847","Congo (Brazzaville)","CG","COG","Brazzaville","primary","1355000","1178340306"
"Yiyang","Yiyang","28.6004","112.3300","China","CN","CHN","Hunan","","1352000","1156218615"
"Vārānasi","Varanasi","25.3300","83.0000","India","IN","IND","Uttar Pradesh","","1352000","1356145782"
"Lubumbashi","Lubumbashi","-11.6800","27.4800","Congo (Kinshasa)","CD","COD","Haut-Katanga","admin","1352000","1180506234"
"Juárez","Juarez","31.6904","-106.4900","Mexico","MX","MEX","Chihuahua","minor","1343000","1484840083"
"Ghāziābād","Ghaziabad","28.6604","77.4084","India","IN","IND","Uttar Pradesh","","1341000","1356691871"
"Pretoria","Pretoria","-25.7069","28.2294","South Africa","ZA","ZAF","Gauteng","primary","1338000","1710176249"
"Heze","Heze","35.2300","115.4500","China","CN","CHN","Shandong","minor","1338000","1156225008"
"Porto","Porto","41.1500","-8.6200","Portugal","PT","PRT","Porto","admin","1337000","1620356810"
"Āsansol","Asansol","23.6833","86.9833","India","IN","IND","West Bengal","","1328000","1356093694"
"Lusaka","Lusaka","-15.4166","28.2833","Zambia","ZM","ZMB","Lusaka","primary","1328000","1894157390"
"Changzhou","Changzhou","31.7800","119.9700","China","CN","CHN","Jiangsu","minor","1327000","1156185511"
"Mosul","Mosul","36.3450","43.1450","Iraq","IQ","IRQ","Nīnawá","admin","1316000","1368194914"
"Yekaterinburg","Yekaterinburg","56.8500","60.6000","Russia","RU","RUS","Sverdlovskaya Oblast’","admin","1313000","1643582706"
"Peshawar","Peshawar","34.0050","71.5350","Pakistan","PK","PAK","Khyber Pakhtunkhwa","admin","1303000","1586851102"
"Mandalay","Mandalay","21.9700","96.0850","Burma","MM","MMR","Mandalay","admin","1300000","1104468217"
"Jamshedpur","Jamshedpur","22.7875","86.1975","India","IN","IND","Jharkhand","","1300000","1356501259"
"Mbuji-Mayi","Mbuji-Mayi","-6.1500","23.6000","Congo (Kinshasa)","CD","COD","Kasaï Oriental","admin","1295000","1180399586"
"Madura","Madura","9.9200","78.1200","India","IN","IND","Tamil Nādu ","","1294000","1356257289"
"Adana","Adana","36.9950","35.3200","Turkey","TR","TUR","Adana","admin","1293000","1792783772"
"Sheffield","Sheffield","53.3667","-1.5000","United Kingdom","GB","GBR","Sheffield","admin","1292900","1826289852"
"Jabalpur","Jabalpur","23.1751","79.9551","India","IN","IND","Madhya Pradesh","","1285000","1356115460"
"San José","San Jose","9.9350","-84.0841","Costa Rica","CR","CRI","San José","primary","1284000","1188749877"
"Panama City","Panama City","8.9680","-79.5330","Panama","PA","PAN","Panamá","primary","1281000","1591672475"
"Nizhniy Novgorod","Nizhniy Novgorod","56.3330","44.0001","Russia","RU","RUS","Nizhegorodskaya Oblast’","admin","1278000","1643012126"
"Chifeng","Chifeng","42.2700","118.9500","China","CN","CHN","Inner Mongolia","minor","1277000","1156277458"
"Duisburg","Duisburg","51.4300","6.7500","Germany","DE","DEU","North Rhine-Westphalia","minor","1276757","1276977172"
"Munich","Munich","48.1299","11.5750","Germany","DE","DEU","Bavaria","admin","1275000","1276692352"
"Huaiyin","Huaiyin","33.5800","119.0300","China","CN","CHN","Jiangsu","","1264000","1156662372"
"Stockholm","Stockholm","59.3508","18.0973","Sweden","SE","SWE","Stockholm","primary","1264000","1752425602"
"Makassar","Makassar","-5.1400","119.4320","Indonesia","ID","IDN","Sulawesi Selatan","admin","1262000","1360051337"
"Rājkot","Rajkot","22.3100","70.8000","India","IN","IND","Gujarāt","","1260000","1356317190"
"Dhanbād","Dhanbad","23.8004","86.4200","India","IN","IND","Jharkhand","","1246000","1356103392"
"Mudanjiang","Mudanjiang","44.5750","129.5900","China","CN","CHN","Heilongjiang","minor","1244000","1156249698"
"Geneva","Geneva","46.2100","6.1400","Switzerland","CH","CHE","Genève","admin","1240000","1756810813"
"Shīrāz","Shiraz","29.6300","52.5700","Iran","IR","IRN","Fārs","admin","1240000","1364432238"
"Huzhou","Huzhou","30.8704","120.1000","China","CN","CHN","Zhejiang","minor","1231000","1156335543"
"Beidao","Beidao","34.6000","105.9200","China","CN","CHN","Gansu","minor","1225000","1156137209"
"Shuangshui","Shuangshui","26.5944","104.8333","China","CN","CHN","Guizhou","","1221000","1156070389"
"Düsseldorf","Dusseldorf","51.2204","6.7800","Germany","DE","DEU","North Rhine-Westphalia","admin","1220000","1276615258"
"Gaozhou","Gaozhou","21.9204","110.8700","China","CN","CHN","Guangdong","","1217715","1156785303"
"Sevilla","Sevilla","37.4050","-5.9800","Spain","ES","ESP","Andalusia","admin","1212045","1724991838"
"Amritsar","Amritsar","31.6400","74.8700","India","IN","IND","Punjab","","1212000","1356926507"
"Vila Velha","Vila Velha","-20.3676","-40.3180","Brazil","BR","BRA","Espírito Santo","","1209091","1076404077"
"Vila Velha","Vila Velha","3.2167","-51.2167","Brazil","BR","BRA","Amapá","","1209091","1076575691"
"Almaty","Almaty","43.3250","76.9150","Kazakhstan","KZ","KAZ","Almaty","admin","1209000","1398351701"
"Providence","Providence","41.8230","-71.4187","United States","US","USA","Rhode Island","admin","1206642.0","1840003289"
"Warangal","Warangal","18.0100","79.5800","India","IN","IND","Telangana","","1203853","1356851618"
"Rosario","Rosario","-32.9511","-60.6663","Argentina","AR","ARG","Santa Fe","minor","1203000","1032770677"
"Allahābād","Allahabad","25.4550","81.8400","India","IN","IND","Uttar Pradesh","","1201000","1356718332"
"Benin City","Benin City","6.3405","5.6200","Nigeria","NG","NGA","Edo","admin","1190000","1566080151"
"Jining","Jining","35.4004","116.5500","China","CN","CHN","Shandong","","1186000","1156504601"
"Maceió","Maceio","-9.6200","-35.7300","Brazil","BR","BRA","Alagoas","admin","1186000","1076440479"
"Sofia","Sofia","42.6833","23.3167","Bulgaria","BG","BGR","Sofia-Grad","primary","1185000","1100762037"
"Abbottabad","Abbottabad","34.1495","73.1995","Pakistan","PK","PAK","Khyber Pakhtunkhwa","minor","1183647","1586788758"
"Benghazi","Benghazi","32.1167","20.0667","Libya","LY","LBY","Banghāzī","admin","1180000","1434915572"
"Cilacap","Cilacap","-7.7188","109.0154","Indonesia","ID","IDN","Jawa Tengah","minor","1174964","1360503809"
"Prague","Prague","50.0833","14.4660","Czechia","CZ","CZE","Praha, Hlavní Město","primary","1162000","1203744823"
"Glasgow","Glasgow","55.8744","-4.2507","United Kingdom","GB","GBR","Glasgow City","admin","1160000","1826836462"
"Leshan","Leshan","29.5671","103.7333","China","CN","CHN","Sichuan","","1157000","1156203130"
"Jacksonville","Jacksonville","30.3322","-81.6749","United States","US","USA","Florida","","1156291.0","1840015031"
"Ouagadougou","Ouagadougou","12.3703","-1.5247","Burkina Faso","BF","BFA","Centre","primary","1149000","1854029208"
"Ottawa","Ottawa","45.4167","-75.7000","Canada","CA","CAN","Ontario","primary","1145000","1124399363"
"Adelaide","Adelaide","-34.9350","138.6000","Australia","AU","AUS","South Australia","admin","1145000","1036538171"
"Shangrao","Shangrao","28.4704","117.9700","China","CN","CHN","Jiangxi","minor","1144577","1156405492"
"Torreón","Torreon","25.5701","-103.4200","Mexico","MX","MEX","Coahuila de Zaragoza","minor","1144000","1484215762"
"Srīnagar","Srinagar","34.1000","74.8150","India","IN","IND","Jammu and Kashmīr","admin","1140000","1356442950"
"Bezwāda","Bezwada","16.5200","80.6300","India","IN","IND","Andhra Pradesh","","1137000","1356807575"
"Samara","Samara","53.1950","50.1513","Russia","RU","RUS","Samarskaya Oblast’","admin","1137000","1643205757"
"Omsk","Omsk","54.9900","73.4000","Russia","RU","RUS","Omskaya Oblast’","admin","1135000","1643360863"
"Newcastle","Newcastle","-32.8453","151.8150","Australia","AU","AUS","New South Wales","","1134616","1036468001"
"Yulin","Yulin","22.6300","110.1500","China","CN","CHN","Guangxi","","1127000","1156901312"
"Namp’o","Namp'o","38.7669","125.4524","Korea, North","KP","PRK","","admin","1127000","1408892768"
"Xianyang","Xianyang","34.3456","108.7147","China","CN","CHN","Shaanxi","minor","1126000","1156120117"
"Cagayan de Oro","Cagayan de Oro","8.4508","124.6853","Philippines","PH","PHL","Cagayan de Oro","admin","1121561","1608831546"
"Cần Thơ","Can Tho","10.0500","105.7700","Vietnam","VN","VNM","Cần Thơ","admin","1121000","1704783472"
"Barquisimeto","Barquisimeto","10.0500","-69.3000","Venezuela","VE","VEN","Lara","admin","1116000","1862860739"
"Helsinki","Helsinki","60.1756","24.9341","Finland","FI","FIN","Uusimaa","primary","1115000","1246177997"
"Kazan’","Kazan'","55.7499","49.1263","Russia","RU","RUS","Tatarstan","admin","1115000","1643101260"
"Aurangābād","Aurangabad","19.8957","75.3203","India","IN","IND","Mahārāshtra","","1113000","1356840670"
"Calgary","Calgary","51.0830","-114.0800","Canada","CA","CAN","Alberta","","1110000","1124690423"
"Ciudad Nezahualcóyotl","Ciudad Nezahualcoyotl","19.4100","-99.0300","Mexico","MX","MEX","México","","1109363","1484016661"
"Zürich","Zurich","47.3800","8.5500","Switzerland","CH","CHE","Zürich","admin","1108000","1756539143"
"Baoding","Baoding","38.8704","115.4800","China","CN","CHN","Hebei","","1107000","1156256829"
"Zigong","Zigong","29.4000","104.7800","China","CN","CHN","Sichuan","","1105000","1156023354"
"Sharjah","Sharjah","25.3714","55.4065","United Arab Emirates","AE","ARE","Ash Shāriqah","admin","1103027","1784152993"
"Yerevan","Yerevan","40.1812","44.5136","Armenia","AM","ARM","Yerevan","primary","1102000","1051074169"
"Mogadishu","Mogadishu","2.0667","45.3667","Somalia","SO","SOM","Banaadir","primary","1100000","1706893395"
"Tbilisi","Tbilisi","41.7250","44.7908","Georgia","GE","GEO","Tbilisi","primary","1100000","1268203191"
"Ankang","Ankang","32.6800","109.0200","China","CN","CHN","Shaanxi","","1100000","1156255711"
"Huambo","Huambo","-12.7500","15.7600","Angola","AO","AGO","Huambo","admin","1100000","1024079828"
"Ikare","Ikare","7.5304","5.7600","Nigeria","NG","NGA","Ondo","minor","1099931","1566683694"
"Belgrade","Belgrade","44.8186","20.4680","Serbia","RS","SRB","Beograd","primary","1099000","1688374696"
"Salt Lake City","Salt Lake City","40.7774","-111.9300","United States","US","USA","Utah","admin","1098400.0","1840021383"
"Bhilai","Bhilai","21.2167","81.4333","India","IN","IND","Chhattīsgarh","","1097000","1356071083"
"Jinhua","Jinhua","29.1200","119.6500","China","CN","CHN","Zhejiang","minor","1092852","1156547188"
"Chelyabinsk","Chelyabinsk","55.1550","61.4387","Russia","RU","RUS","Chelyabinskaya Oblast’","admin","1091000","1643224011"
"Natal","Natal","-5.7800","-35.2400","Brazil","BR","BRA","Rio Grande do Norte","admin","1088000","1076697777"
"Dushanbe","Dushanbe","38.5600","68.7739","Tajikistan","TJ","TJK","Dushanbe","primary","1086244","1762930616"
"Copenhagen","Copenhagen","55.6786","12.5635","Denmark","DK","DNK","Hovedstaden","primary","1085000","1208763942"
"Changwon","Changwon","35.2191","128.5836","Korea, South","KR","KOR","Gyeongnam","admin","1081499","1410592618"
"Zhuzhou","Zhuzhou","27.8300","113.1500","China","CN","CHN","Hunan","minor","1080000","1156041962"
"Suwon","Suwon","37.2578","127.0109","Korea, South","KR","KOR","Gyeonggi","admin","1078000","1410679777"
"Nashville","Nashville","36.1715","-86.7843","United States","US","USA","Tennessee","admin","1076645.0","1840036155"
"Vereeniging","Vereeniging","-26.6496","27.9600","South Africa","ZA","ZAF","Gauteng","","1074000","1710271883"
"Xiangyang","Xiangyang","32.0200","112.1300","China","CN","CHN","Hubei","minor","1069000","1156107325"
"Memphis","Memphis","35.1046","-89.9773","United States","US","USA","Tennessee","","1068873.0","1840015457"
"Ulsan","Ulsan","35.5467","129.3170","Korea, South","KR","KOR","Ulsan","admin","1061000","1410134602"
"Amman","Amman","31.9500","35.9333","Jordan","JO","JOR","Al ‘Āşimah","primary","1060000","1400522593"
"Mizhou","Mizhou","35.9900","119.3801","China","CN","CHN","Shandong","minor","1060000","1156935002"
"Richmond","Richmond","37.5295","-77.4756","United States","US","USA","Virginia","admin","1059907.0","1840001698"
"Dublin","Dublin","53.3331","-6.2489","Ireland","IE","IRL","Dublin","primary","1059000","1372595407"
"Edmonton","Edmonton","53.5500","-113.5000","Canada","CA","CAN","Alberta","admin","1058000","1124290735"
"Solāpur","Solapur","17.6704","75.9000","India","IN","IND","Mahārāshtra","","1057000","1356314385"
"Rostov-na-Donu","Rostov-na-Donu","47.2346","39.7127","Russia","RU","RUS","Rostovskaya Oblast’","admin","1052000","1643013518"
"Dnipro","Dnipro","48.4800","35.0000","Ukraine","UA","UKR","Dnipropetrovs’ka Oblast’","admin","1050000","1804152933"
"Xining","Xining","36.6200","101.7700","China","CN","CHN","Qinghai","admin","1048000","1156081448"
"Zhangjiakou","Zhangjiakou","40.8300","114.9300","China","CN","CHN","Hebei","","1046000","1156800221"
"Lille","Lille","50.6500","3.0800","France","FR","FRA","Hauts-de-France","admin","1044000","1250071961"
"Ranchi","Ranchi","23.3700","85.3300","India","IN","IND","Jharkhand","admin","1044000","1356110588"
"Gaziantep","Gaziantep","37.0750","37.3850","Turkey","TR","TUR","Gaziantep","admin","1044000","1792911843"
"Monrovia","Monrovia","6.3106","-10.8048","Liberia","LR","LBR","Montserrado","primary","1041000","1430477826"
"São Luís","Sao Luis","-2.5160","-44.2660","Brazil","BR","BRA","Maranhão","admin","1038000","1076819308"
"Amsterdam","Amsterdam","52.3500","4.9166","Netherlands","NL","NLD","Noord-Holland","primary","1031000","1528355309"
"Jerusalem","Jerusalem","31.7784","35.2066","Israel","IL","ISR","","primary","1029300","1376261644"
"New Orleans","New Orleans","30.0687","-89.9288","United States","US","USA","Louisiana","","1029123.0","1840001839"
"Guatemala City","Guatemala City","14.6211","-90.5270","Guatemala","GT","GTM","Guatemala","primary","1024000","1320197916"
"Zhuhai","Zhuhai","22.2769","113.5678","China","CN","CHN","Guangdong","minor","1023000","1156722242"
"Florianópolis","Florianopolis","-27.5800","-48.5200","Brazil","BR","BRA","Santa Catarina","admin","1023000","1076190259"
"Port Elizabeth","Port Elizabeth","-33.9700","25.6000","South Africa","ZA","ZAF","Eastern Cape","","1021000","1710918997"
"Jiamusi","Jiamusi","46.8300","130.3500","China","CN","CHN","Heilongjiang","minor","1020000","1156350864"
"Port Harcourt","Port Harcourt","4.8100","7.0100","Nigeria","NG","NGA","Rivers","admin","1020000","1566070649"
"Raleigh","Raleigh","35.8324","-78.6438","United States","US","USA","North Carolina","admin","1018336.0","1840014497"
"Ufa","Ufa","54.7900","56.0400","Russia","RU","RUS","Bashkortostan","admin","1018000","1643722928"
"Hengyang","Hengyang","26.8800","112.5900","China","CN","CHN","Hunan","","1016000","1156696884"
"Benxi","Benxi","41.3304","123.7500","China","CN","CHN","Liaoning","","1012000","1156097909"
"Louisville","Louisville","38.1663","-85.6485","United States","US","USA","Kentucky","","1011696.0","1840030815"
"Haifa","Haifa","32.8204","34.9800","Israel","IL","ISR","Haifa","admin","1011000","1376133727"
"Medina","Medina","24.5000","39.5800","Saudi Arabia","SA","SAU","Al Madīnah al Munawwarah","admin","1010000","1682345785"
"Bucaramanga","Bucaramanga","7.1301","-73.1259","Colombia","CO","COL","Santander","admin","1009000","1170940590"
"Maracay","Maracay","10.2469","-67.5958","Venezuela","VE","VEN","Aragua","admin","1007000","1862284350"
"Rotterdam","Rotterdam","51.9200","4.4800","Netherlands","NL","NLD","Zuid-Holland","minor","1005000","1528892850"
"Homs","Homs","34.7300","36.7200","Syria","SY","SYR","Ḩimş","admin","1005000","1760013934"
"Cologne","Cologne","50.9300","6.9500","Germany","DE","DEU","North Rhine-Westphalia","","1004000","1276015998"
"Qinhuangdao","Qinhuangdao","39.9304","119.6200","China","CN","CHN","Hebei","","1003000","1156091093"
"Fès","Fes","34.0546","-5.0004","Morocco","MA","MAR","Fès-Meknès","admin","1002000","1504861997"
"N’Djamena","N'Djamena","12.1131","15.0491","Chad","TD","TCD","Ville de N’Djaména","primary","989000","1148708596"
"Tegucigalpa","Tegucigalpa","14.1020","-87.2175","Honduras","HN","HND","Francisco Morazán","primary","946000","1340344059"
"Kingston","Kingston","17.9771","-76.7674","Jamaica","JM","JAM","Kingston","primary","937700","1388709177"
"Nay Pyi Taw","Nay Pyi Taw","19.7666","96.1186","Burma","MM","MMR","Nay Pyi Taw","primary","930000","1104838105"
"Djibouti","Djibouti","11.5950","43.1480","Djibouti","DJ","DJI","Djibouti","primary","923000","1262028958"
"Managua","Managua","12.1530","-86.2685","Nicaragua","NI","NIC","Managua","primary","920000","1558296252"
"Niamey","Niamey","13.5167","2.1167","Niger","NE","NER","Niamey","primary","915000","1562932886"
"Tirana","Tirana","41.3275","19.8189","Albania","AL","ALB","Tiranë","primary","895350","1008162156"
"Kathmandu","Kathmandu","27.7167","85.3166","Nepal","NP","NPL","Bāgmatī","primary","895000","1524589448"
"Ulaanbaatar","Ulaanbaatar","47.9167","106.9166","Mongolia","MN","MNG","Ulaanbaatar","primary","885000","1496024767"
"Kigali","Kigali","-1.9536","30.0605","Rwanda","RW","RWA","Kigali","primary","860000","1646923541"
"Bishkek","Bishkek","42.8731","74.5852","Kyrgyzstan","KG","KGZ","Bishkek","primary","837000","1417191971"
"Oslo","Oslo","59.9167","10.7500","Norway","NO","NOR","Oslo","primary","835000","1578324706"
"Bangui","Bangui","4.3666","18.5583","Central African Republic","CF","CAF","Bangui","primary","831925","1140080881"
"Freetown","Freetown","8.4700","-13.2342","Sierra Leone","SL","SLE","Western Area","primary","827000","1694085071"
"Islamabad","Islamabad","33.7000","73.1666","Pakistan","PK","PAK","Islāmābād","primary","780000","1586306717"
"Cotonou","Cotonou","6.4000","2.5200","Benin","BJ","BEN","Littoral","primary","762000","1204955174"
"Vientiane","Vientiane","17.9667","102.6000","Laos","LA","LAO","Viangchan","primary","754000","1418732714"
"Riga","Riga","56.9500","24.1000","Latvia","LV","LVA","Rīga","primary","742572","1428586192"
"Nouakchott","Nouakchott","18.0864","-15.9753","Mauritania","MR","MRT","","primary","742144","1478414984"
"Muscat","Muscat","23.6133","58.5933","Oman","OM","OMN","Masqaţ","primary","734697","1512035506"
"Ashgabat","Ashgabat","37.9500","58.3833","Turkmenistan","TM","TKM","","primary","727700","1795049992"
"Zagreb","Zagreb","45.8000","16.0000","Croatia","HR","HRV","Zagreb, Grad","primary","722526","1191233290"
"Sarajevo","Sarajevo","43.8500","18.3830","Bosnia And Herzegovina","BA","BIH","Bosnia and Herzegovina, Federation of","primary","696731","1070966777"
"Chisinau","Chisinau","47.0050","28.8577","Moldova","MD","MDA","Chişinău","primary","688134","1498011437"
"Lilongwe","Lilongwe","-13.9833","33.7833","Malawi","MW","MWI","Lilongwe","primary","646750","1454688499"
"Asmara","Asmara","15.3333","38.9333","Eritrea","ER","ERI","Ma’ākel","primary","620802","1232791236"
"Abu Dhabi","Abu Dhabi","24.4667","54.3666","United Arab Emirates","AE","ARE","Abū Z̧aby","primary","603492","1784176710"
"Port Louis","Port Louis","-20.1666","57.5000","Mauritius","MU","MUS","Port Louis","primary","595491","1480131261"
"Libreville","Libreville","0.3854","9.4580","Gabon","GA","GAB","Estuaire","primary","578156","1266952885"
"Manama","Manama","26.2361","50.5831","Bahrain","BH","BHR","Al ‘Āşimah","primary","563920","1048989486"
"Vilnius","Vilnius","54.6834","25.3166","Lithuania","LT","LTU","Vilniaus Miestas","primary","542366","1440887149"
"Skopje","Skopje","42.0000","21.4335","Macedonia","MK","MKD","Skopje","primary","494087","1807600615"
"Bloemfontein","Bloemfontein","-29.1200","26.2299","South Africa","ZA","ZAF","Free State","primary","463064","1710495933"
"Bratislava","Bratislava","48.1500","17.1170","Slovakia","SK","SVK","Bratislavský","primary","423737","1703195001"
"Bissau","Bissau","11.8650","-15.5984","Guinea-Bissau","GW","GNB","Bissau","primary","403339","1624168850"
"Tallinn","Tallinn","59.4339","24.7280","Estonia","EE","EST","Harjumaa","primary","394024","1233260021"
"Wellington","Wellington","-41.3000","174.7833","New Zealand","NZ","NZL","Wellington","primary","393400","1554772152"
"Valletta","Valletta","35.8997","14.5147","Malta","MT","MLT","Valletta","primary","368250","1470574399"
"Maseru","Maseru","-29.3167","27.4833","Lesotho","LS","LSO","Maseru","primary","361324","1426977668"
"Nur-Sultan","Nur-Sultan","51.1811","71.4278","Kazakhstan","KZ","KAZ","Astana","primary","345604","1398516045"
"Bujumbura","Bujumbura","-3.3761","29.3600","Burundi","BI","BDI","Bujumbura Mairie","primary","331700","1108101689"
"Canberra","Canberra","-35.2830","149.1290","Australia","AU","AUS","Australian Capital Territory","primary","327700","1036142029"
"New Delhi","New Delhi","28.6000","77.2000","India","IN","IND","Delhi","primary","317797","1356215164"
"Ljubljana","Ljubljana","46.0553","14.5150","Slovenia","SI","SVN","Ljubljana","primary","314807","1705917455"
"Porto-Novo","Porto-Novo","6.4833","2.6166","Benin","BJ","BEN","Ouémé","primary","300000","1204172060"
"Bandar Seri Begawan","Bandar Seri Begawan","4.8833","114.9333","Brunei","BN","BRN","Brunei and Muara","primary","296500","1096465895"
"Port of Spain","Port of Spain","10.6520","-61.5170","Trinidad And Tobago","TT","TTO","Port of Spain","primary","294934","1780670676"
"Port Moresby","Port Moresby","-9.4647","147.1925","Papua New Guinea","PG","PNG","National Capital","primary","283733","1598685395"
"Bern","Bern","46.9167","7.4670","Switzerland","CH","CHE","Bern","primary","275329","1756374318"
"Windhoek","Windhoek","-22.5700","17.0835","Namibia","NA","NAM","Khomas","primary","268132","1516802003"
"Georgetown","Georgetown","6.8020","-58.1670","Guyana","GY","GUY","Demerara-Mahaica","primary","264350","1328160906"
"Paramaribo","Paramaribo","5.8350","-55.1670","Suriname","SR","SUR","Paramaribo","primary","254169","1740518660"
"Dili","Dili","-8.5594","125.5795","Timor-Leste","TL","TLS","Díli","primary","234331","1626308942"
"Nassau","Nassau","25.0834","-77.3500","Bahamas, The","BS","BHS","","primary","227940","1044318561"
"Sucre","Sucre","-19.0410","-65.2595","Bolivia","BO","BOL","Chuquisaca","primary","224838","1068823873"
"Nicosia","Nicosia","35.1667","33.3666","Cyprus","CY","CYP","Lefkosía","primary","224300","1196944155"
"Dodoma","Dodoma","-6.1833","35.7500","Tanzania","TZ","TZA","Dodoma","primary","218269","1834288497"
"Colombo","Colombo","6.9320","79.8578","Sri Lanka","LK","LKA","Western","primary","217000","1144251314"
"Gaborone","Gaborone","-24.6463","25.9119","Botswana","BW","BWA","Gaborone","primary","208411","1072756768"
"Yamoussoukro","Yamoussoukro","6.8184","-5.2755","Côte D’Ivoire","CI","CIV","Yamoussoukro","primary","206499","1384683557"
"Bridgetown","Bridgetown","13.1020","-59.6165","Barbados","BB","BRB","Saint Michael","primary","191152","1052274244"
"Suva","Suva","-18.1330","178.4417","Fiji","FJ","FJI","Rewa","primary","175399","1242615095"
"Reykjavík","Reykjavik","64.1500","-21.9500","Iceland","IS","ISL","Höfuðborgarsvæði","primary","166212","1352327190"
"Malabo","Malabo","3.7500","8.7833","Equatorial Guinea","GQ","GNQ","Bioko Norte","primary","155963","1226861333"
"Willemstad","Willemstad","12.2004","-69.0200","Curaçao","CW","CUW","","primary","146813","1531000000"
"Podgorica","Podgorica","42.4660","19.2663","Montenegro","ME","MNE","Podgorica","primary","145850","1499454516"
"Moroni","Moroni","-11.7042","43.2402","Comoros","KM","COM","Grande Comore","primary","128698","1174793581"
"Sri Jayewardenepura Kotte","Sri Jayewardenepura Kotte","6.9000","79.9500","Sri Lanka","LK","LKA","Western","primary","115826","1144239330"
"Praia","Praia","14.9167","-23.5167","Cabo Verde","CV","CPV","Praia","primary","113364","1132398770"
"Male","Male","4.1667","73.4999","Maldives","MV","MDV","Maale","primary","112927","1462441685"
"Juba","Juba","4.8300","31.5800","South Sudan","SS","SSD","Central Equatoria","primary","111975","1728444337"
"Luxembourg","Luxembourg","49.6117","6.1300","Luxembourg","LU","LUX","Luxembourg","primary","107260","1442262731"
"Thimphu","Thimphu","27.4730","89.6390","Bhutan","BT","BTN","Thimphu","primary","98676","1064010361"
"Mbabane","Mbabane","-26.3167","31.1333","Swaziland","SZ","SWZ","Hhohho","primary","90138","1748811945"
"São Tomé","Sao Tome","0.3334","6.7333","Sao Tome And Principe","ST","STP","São Tomé","primary","88219","1678301324"
"Honiara","Honiara","-9.4380","159.9498","Solomon Islands","SB","SLB","Honiara","primary","76328","1090737486"
"Oranjestad","Oranjestad","12.5304","-70.0290","Aruba","AW","ABW","","primary","68775","1533513057"
"Apia","Apia","-13.8415","-171.7386","Samoa","WS","WSM","Tuamasaga","primary","61916","1882489296"
"Andorra la Vella","Andorra la Vella","42.5000","1.5165","Andorra","AD","AND","Andorra la Vella","primary","53998","1020828846"
"Kingstown","Kingstown","13.1483","-61.2121","Saint Vincent And The Grenadines","VC","VCT","Saint George","primary","49485","1670376659"
"Port-Vila","Port-Vila","-17.7334","168.3166","Vanuatu","VU","VUT","Shefa","primary","44040","1548805075"
"Banjul","Banjul","13.4539","-16.5917","Gambia, The","GM","GMB","Banjul","primary","43094","1270723713"
"Nuku‘alofa","Nuku`alofa","-21.1385","-175.2206","Tonga","TO","TON","Tongatapu","primary","42620","1776737461"
"Castries","Castries","14.0020","-61.0000","Saint Lucia","LC","LCA","Castries","primary","37963","1662922505"
"Monaco","Monaco","43.7396","7.4069","Monaco","MC","MCO","","primary","36371","1492854256"
"Vaduz","Vaduz","47.1337","9.5167","Liechtenstein","LI","LIE","Vaduz","primary","36281","1438317747"
"Saint John’s","Saint John's","17.1180","-61.8500","Antigua And Barbuda","AG","ATG","Saint John","primary","35499","1028912067"
"Saint George’s","Saint George's","12.0526","-61.7416","Grenada","GD","GRD","Saint George","primary","33734","1308891766"
"Victoria","Victoria","-4.6166","55.4500","Seychelles","SC","SYC","","primary","33576","1690193579"
"San Marino","San Marino","43.9172","12.4667","San Marino","SM","SMR","San Marino Città","primary","29579","1674741947"
"Tarawa","Tarawa","1.3382","173.0176","Kiribati","KI","KIR","","primary","28802","1296152641"
"Majuro","Majuro","7.1030","171.3800","Marshall Islands","MH","MHL","Majuro","primary","25400","1584000000"
"Roseau","Roseau","15.3010","-61.3870","Dominica","DM","DMA","Saint George","primary","23336","1212060440"
"Basseterre","Basseterre","17.3020","-62.7170","Saint Kitts And Nevis","KN","KNA","Saint George Basseterre","primary","21887","1659198919"
"Belmopan","Belmopan","17.2520","-88.7671","Belize","BZ","BLZ","Cayo","primary","15220","1084586375"
"Pago Pago","Pago Pago","-14.2740","-170.7046","American Samoa","AS","ASM","","primary","12576","1016976740"
"Lobamba","Lobamba","-26.4667","31.2000","Swaziland","SZ","SWZ","Hhohho","primary","9782","1748963140"
"Funafuti","Funafuti","-8.5167","179.2166","Tuvalu","TV","TUV","Funafuti","primary","4749","1798251391"
"Palikir","Palikir","6.9166","158.1500","Micronesia, Federated States Of","FM","FSM","Pohnpei","primary","4645","1583008885"
"Capitol Hill","Capitol Hill","15.2137","145.7546","Northern Mariana Islands","MP","MNP","","primary","2500","1580556972"
"Hagåtña","Hagta","13.4745","144.7504","Guam","GU","GUM","","primary","1051","1316937540"
"Al Quds","Al Quds","31.7764","35.2269","West Bank","XW","XWB","","primary","","1934000006"
"Philipsburg","Philipsburg","18.0255","-63.0450","Sint Maarten","SX","SXM","","primary","","1534859858"
"Gitega","Gitega","-3.4271","29.9246","Burundi","BI","BDI","Gitega","primary","","1108778000"
"Pristina","Pristina","42.6666","21.1724","Kosovo","XK","XKS","Prishtinë","primary","","1901760068"
"Ngerulmud","Ngerulmud","7.5000","134.6242","Palau","PW","PLW","Melekeok","primary","","1585525081"
"Aden","Aden","12.7797","45.0095","Yemen","YE","YEM","‘Adan","admin","1000000","1887867886"
"Cochabamba","Cochabamba","-17.4100","-66.1700","Bolivia","BO","BOL","Cochabamba","admin","1000000","1068793894"
"Yongzhou","Yongzhou","26.2304","111.6200","China","CN","CHN","Hunan","","1000000","1156694479"
"Baoshan","Baoshan","25.1200","99.1500","China","CN","CHN","Yunnan","","1000000","1156546994"
"Quảng Hà","Quang Ha","16.0600","108.2500","Vietnam","VN","VNM","Quảng Nam","","1000000","1704966442"
"Kitaku","Kitaku","33.8704","130.8200","Japan","JP","JPN","Fukuoka","","997536","1392129541"
"Perm’","Perm'","58.0000","56.2500","Russia","RU","RUS","Permskiy Kray","","997000","1643700880"
"Ahvāz","Ahvaz","31.2800","48.7200","Iran","IR","IRN","Khūzestān","admin","996000","1364350188"
"Jodhpur","Jodhpur","26.2918","73.0168","India","IN","IND","Rājasthān","","995000","1356727084"
"San Luis Potosí","San Luis Potosi","22.1700","-101.0000","Mexico","MX","MEX","San Luis Potosí","admin","992000","1484583620"
"Odesa","Odesa","46.4900","30.7100","Ukraine","UA","UKR","Odes’ka Oblast’","admin","991000","1804178102"
"Yinchuan","Yinchuan","38.4680","106.2730","China","CN","CHN","Ningxia","admin","991000","1156359072"
"Jiaxing","Jiaxing","30.7704","120.7500","China","CN","CHN","Zhejiang","minor","988000","1156491661"
"Joinvile","Joinvile","-26.3200","-48.8399","Brazil","BR","BRA","Santa Catarina","","988000","1076050637"
"Donets’k","Donets'k","48.0000","37.8300","Ukraine","UA","UKR","Donets’ka Oblast’","admin","988000","1804963805"
"Guilin","Guilin","25.2800","110.2800","China","CN","CHN","Guangxi","minor","987000","1156235364"
"Dahūk","Dahuk","36.8667","43.0000","Iraq","IQ","IRQ","Dahūk","admin","986000","1368137126"
"Volgograd","Volgograd","48.7100","44.5000","Russia","RU","RUS","Volgogradskaya Oblast’","admin","984000","1643577201"
"Guwāhāti","Guwahati","26.1600","91.7700","India","IN","IND","Assam","","983000","1356593800"
"Yichun","Yichun","27.8333","114.4000","China","CN","CHN","Jiangxi","minor","982000","1156229590"
"Yangquan","Yangquan","37.8700","113.5700","China","CN","CHN","Shanxi","minor","981448","1156157844"
"Natal","Natal","-6.9838","-60.2699","Brazil","BR","BRA","Amazonas","","980588","1076336975"
"Chandigarh","Chandigarh","30.7200","76.7800","India","IN","IND","Chandīgarh","admin","979000","1356739179"
"Gwalior","Gwalior","26.2300","78.1801","India","IN","IND","Madhya Pradesh","","978000","1356363967"
"Hamamatsu","Hamamatsu","34.7181","137.7327","Japan","JP","JPN","Shizuoka","","977023","1392174500"
"Qom","Qom","34.6500","50.9500","Iran","IR","IRN","Qom","admin","973000","1364701633"
"Jixi","Jixi","45.3000","130.9700","China","CN","CHN","Heilongjiang","minor","965000","1156393765"
"Mérida","Merida","20.9666","-89.6166","Mexico","MX","MEX","Yucatán","admin","965000","1484396779"
"Xin’an","Xin'an","34.3800","118.3500","China","CN","CHN","Jiangsu","","962656","1156236053"
"Querétaro","Queretaro","20.6300","-100.3800","Mexico","MX","MEX","Querétaro","admin","961000","1484604775"
"Pingxiang","Pingxiang","27.6200","113.8500","China","CN","CHN","Jiangxi","minor","961000","1156066465"
"João Pessoa","Joao Pessoa","-7.1011","-34.8761","Brazil","BR","BRA","Paraíba","admin","956000","1076922014"
"Klang","Klang","3.0204","101.5500","Malaysia","MY","MYS","Selangor","","956000","1458509635"
"Jinzhou","Jinzhou","41.1204","121.1000","China","CN","CHN","Liaoning","","956000","1156157151"
"Oklahoma City","Oklahoma City","35.4676","-97.5137","United States","US","USA","Oklahoma","admin","955998.0","1840020428"
"Salerno","Salerno","40.6804","14.7699","Italy","IT","ITA","Campania","minor","954265","1380863448"
"Thiruvananthapuram","Thiruvananthapuram","8.5000","76.9500","India","IN","IND","Kerala","admin","954000","1356024354"
"Calicut","Calicut","11.2504","75.7700","India","IN","IND","Kerala","minor","953000","1356010401"
"Trichinopoly","Trichinopoly","10.8100","78.6900","India","IN","IND","Tamil Nādu ","","951000","1356884472"
"Ogbomoso","Ogbomoso","8.1300","4.2400","Nigeria","NG","NGA","Oyo","minor","951000","1566373448"
"General Santos","General Santos","6.1108","125.1747","Philippines","PH","PHL","General Santos","admin","950530","1608171585"
"Huế","Hue","16.4700","107.5800","Vietnam","VN","VNM","Thừa Thiên-Huế","admin","950000","1704016023"
"Bacolod","Bacolod","10.6317","122.9817","Philippines","PH","PHL","Bacolod","admin","949354","1608244137"
"Nantong","Nantong","32.0304","120.8250","China","CN","CHN","Jiangsu","minor","947000","1156045365"
"Foshan","Foshan","23.0301","113.1200","China","CN","CHN","Guangdong","minor","943000","1156738403"
"Sŏngnam","Songnam","37.4386","127.1378","Korea, South","KR","KOR","Gyeonggi","","942000","1410622472"
"Bridgeport","Bridgeport","41.1918","-73.1953","United States","US","USA","Connecticut","","938406.0","1840004836"
"Nice","Nice","43.7150","7.2650","France","FR","FRA","Provence-Alpes-Côte d’Azur","minor","927000","1250774553"
"Buffalo","Buffalo","42.9017","-78.8487","United States","US","USA","New York","","926261.0","1840000386"
"Erbil","Erbil","36.1790","44.0086","Iraq","IQ","IRQ","Arbīl","admin","926000","1368578192"
"Krasnoyarsk","Krasnoyarsk","56.0140","92.8660","Russia","RU","RUS","Krasnoyarskiy Kray","admin","925000","1643544975"
"Olinda","Olinda","-8.0000","-34.8500","Brazil","BR","BRA","Pernambuco","","921840","1076784718"
"Antwerp","Antwerp","51.2204","4.4150","Belgium","BE","BEL","Flanders","minor","920000","1056168623"
"Konya","Konya","37.8750","32.4750","Turkey","TR","TUR","Konya","admin","919000","1792014004"
"Bogor","Bogor","-6.5700","106.7500","Indonesia","ID","IDN","Jawa Barat","","918000","1360771925"
"Hartford","Hartford","41.7661","-72.6834","United States","US","USA","Connecticut","","914751.0","1840004773"
"Huaibei","Huaibei","33.9504","116.7500","China","CN","CHN","Anhui","","913000","1156142626"
"Xinyu","Xinyu","27.8000","114.9300","China","CN","CHN","Jiangxi","minor","913000","1156138735"
"Teresina","Teresina","-5.0950","-42.7800","Brazil","BR","BRA","Piauí","admin","907000","1076727667"
"Naha","Naha","26.2072","127.6730","Japan","JP","JPN","Okinawa","admin","905238","1392583118"
"Goyang","Goyang","37.6527","126.8372","Korea, South","KR","KOR","Gyeonggi","minor","903000","1410511255"
"Nangandao","Nangandao","35.3204","113.8700","China","CN","CHN","Henan","minor","903000","1156127660"
"Yibin","Yibin","28.7700","104.5700","China","CN","CHN","Sichuan","minor","902000","1156107603"
"Aba","Aba","5.1004","7.3500","Nigeria","NG","NGA","Abia","minor","897560","1566262000"
"Maiduguri","Maiduguri","11.8500","13.1600","Nigeria","NG","NGA","Borno","admin","896000","1566540296"
"Az Zarqā’","Az Zarqa'","32.0700","36.1000","Jordan","JO","JOR","Az Zarqā’","admin","894691","1400161837"
"Tarsus","Tarsus","36.9204","34.8800","Turkey","TR","TUR","Mersin","minor","894318","1792003860"
"Bengbu","Bengbu","32.9500","117.3300","China","CN","CHN","Anhui","","894000","1156440668"
"Mendoza","Mendoza","-32.8833","-68.8166","Argentina","AR","ARG","Mendoza","admin","893000","1032433516"
"Hubli","Hubli","15.3600","75.1250","India","IN","IND","Karnātaka","","890000","1356102365"
"Concepción","Concepcion","-36.8300","-73.0500","Chile","CL","CHL","Biobío","admin","889725","1152838958"
"Zaria","Zaria","11.0800","7.7100","Nigeria","NG","NGA","Kaduna","minor","889000","1566287704"
"Dengtalu","Dengtalu","36.0800","114.3500","China","CN","CHN","Henan","minor","887000","1156202014"
"Cartagena","Cartagena","10.3997","-75.5144","Colombia","CO","COL","Bolívar","admin","887000","1170886102"
"Mysore","Mysore","12.3100","76.6600","India","IN","IND","Karnātaka","","887000","1356779323"
"Mexicali","Mexicali","32.6500","-115.4800","Mexico","MX","MEX","Baja California","admin","885000","1484788702"
"Tongliao","Tongliao","43.6200","122.2700","China","CN","CHN","Inner Mongolia","minor","884000","1156358686"
"Mombasa","Mombasa","-4.0400","39.6899","Kenya","KE","KEN","Mombasa","admin","882000","1404512373"
"Newcastle upon Tyne","Newcastle upon Tyne","55.0004","-1.6000","United Kingdom","GB","GBR","Newcastle upon Tyne","admin","882000","1826292220"
"Novo Hamburgo","Novo Hamburgo","-29.7096","-51.1400","Brazil","BR","BRA","Rio Grande do Sul","","876990","1076221386"
"Callao","Callao","-12.0700","-77.1350","Peru","PE","PER","Callao","admin","876877","1604422141"
"Bilbao","Bilbao","43.2500","-2.9300","Spain","ES","ESP","Basque Country","minor","875552","1724331267"
"Johor Bahru","Johor Bahru","1.4800","103.7300","Malaysia","MY","MYS","Johor","admin","875000","1458747615"
"Raipur","Raipur","21.2350","81.6350","India","IN","IND","Chhattīsgarh","admin","875000","1356374983"
"Xiaoxita","Xiaoxita","30.7000","111.2800","China","CN","CHN","Hubei","minor","875000","1156764447"
"Fort Worth","Fort Worth","32.7812","-97.3472","United States","US","USA","Texas","","874168","1840020696"
"Salem","Salem","11.6700","78.1801","India","IN","IND","Tamil Nādu ","","873000","1356567087"
"Yangjiang","Yangjiang","21.8504","111.9700","China","CN","CHN","Guangdong","minor","872363","1156123172"
"Marrakech","Marrakech","31.6300","-8.0000","Morocco","MA","MAR","Marrakech-Safi","admin","872000","1504172585"
"Kaifeng Chengguanzhen","Kaifeng Chengguanzhen","34.8500","114.3500","China","CN","CHN","Henan","minor","872000","1156686574"
"Dandong","Dandong","40.1436","124.3936","China","CN","CHN","Liaoning","","870000","1156178316"
"Al Başrah","Al Basrah","30.5135","47.8136","Iraq","IQ","IRQ","Al Başrah","admin","870000","1368714645"
"Aguascalientes","Aguascalientes","21.8795","-102.2904","Mexico","MX","MEX","Aguascalientes","admin","869000","1484666646"
"Tucson","Tucson","32.1545","-110.8782","United States","US","USA","Arizona","","868391.0","1840022101"
"Okayama","Okayama","34.6720","133.9171","Japan","JP","JPN","Okayama","admin","866092","1392954750"
"Bucheon","Bucheon","37.4989","126.7831","Korea, South","KR","KOR","Gyeonggi","minor","866000","1410428222"
"Xuanzhou","Xuanzhou","30.9525","118.7553","China","CN","CHN","Anhui","","866000","1156424311"
"Bandar Lampung","Bandar Lampung","-5.4300","105.2700","Indonesia","ID","IDN","Lampung","admin","865000","1360243491"
"Rizhao","Rizhao","35.4304","119.4500","China","CN","CHN","Shandong","minor","865000","1156032841"
"Palermo","Palermo","38.1250","13.3500","Italy","IT","ITA","Sicilia","admin","863000","1380428434"
"Caerdydd","Caerdydd","51.5000","-3.2250","United Kingdom","GB","GBR","Cardiff","admin","861400","1826362422"
"Tampico","Tampico","22.3000","-97.8700","Mexico","MX","MEX","Tamaulipas","minor","859419","1484060031"
"Jiaozuo","Jiaozuo","35.2500","113.2200","China","CN","CHN","Henan","","857000","1156157854"
"Padang","Padang","-0.9600","100.3600","Indonesia","ID","IDN","Sumatera Barat","admin","855000","1360900986"
"Jalandhar","Jalandhar","31.3349","75.5690","India","IN","IND","Punjab","","855000","1356494816"
"Zhenjiang","Zhenjiang","32.2200","119.4300","China","CN","CHN","Jiangsu","minor","854000","1156934125"
"Valparaíso","Valparaiso","-33.0478","-71.6210","Chile","CL","CHL","Valparaíso","admin","854000","1152337970"
"Pingdingshan","Pingdingshan","33.7304","113.3000","China","CN","CHN","Henan","","849000","1156735124"
"Zunyi","Zunyi","27.7000","106.9200","China","CN","CHN","Guizhou","","849000","1156539782"
"Anshun","Anshun","26.2504","105.9300","China","CN","CHN","Guizhou","","849000","1156415948"
"Toulouse","Toulouse","43.6200","1.4499","France","FR","FRA","Occitanie","admin","847000","1250258110"
"El Paso","El Paso","31.8479","-106.4309","United States","US","USA","Texas","","845674.0","1840023252"
"Iguaçu","Iguacu","-22.7400","-43.4700","Brazil","BR","BRA","Rio de Janeiro","","844583","1076339714"
"Bhubaneshwar","Bhubaneshwar","20.2704","85.8274","India","IN","IND","Odisha","admin","844000","1356140143"
"Voronezh","Voronezh","51.7300","39.2700","Russia","RU","RUS","Voronezhskaya Oblast’","admin","844000","1643811064"
"Saratov","Saratov","51.5800","46.0300","Russia","RU","RUS","Saratovskaya Oblast’","admin","843000","1643556540"
"Yuci","Yuci","37.6804","112.7300","China","CN","CHN","Shanxi","","840000","1156177817"
"Yancheng","Yancheng","33.3856","120.1253","China","CN","CHN","Jiangsu","minor","839000","1156995410"
"Cuernavaca","Cuernavaca","18.9211","-99.2400","Mexico","MX","MEX","Morelos","admin","834001","1484926471"
"Linfen","Linfen","36.0803","111.5200","China","CN","CHN","Shanxi","","834000","1156416074"
"Honolulu","Honolulu","21.3294","-157.8460","United States","US","USA","Hawaii","admin","833671.0","1840013305"
"Warri","Warri","5.5200","5.7600","Nigeria","NG","NGA","Delta","minor","830106","1566325734"
"Basel","Basel","47.5804","7.5900","Switzerland","CH","CHE","Basel-Stadt","admin","830000","1756731313"
"San Miguel de Tucumán","San Miguel de Tucuman","-26.8160","-65.2166","Argentina","AR","ARG","Tucumán","admin","830000","1032233996"
"Kermānshāh","Kermanshah","34.3800","47.0600","Iran","IR","IRN","Kermānshāh","admin","828313","1364535690"
"Thessaloníki","Thessaloniki","40.6961","22.8850","Greece","GR","GRC","Kentrikí Makedonía","admin","828000","1300397999"
"Omaha","Omaha","41.2628","-96.0498","United States","US","USA","Nebraska","","827786.0","1840009315"
"Kota","Kota","25.1800","75.8350","India","IN","IND","Rājasthān","","827000","1356820310"
"Braga","Braga","41.5550","-8.4213","Portugal","PT","PRT","Braga","admin","826833","1620949401"
"Jhānsi","Jhansi","25.4530","78.5575","India","IN","IND","Uttar Pradesh","","826494","1356712664"
"Rongjiawan","Rongjiawan","29.3801","113.1000","China","CN","CHN","Hunan","minor","826000","1156795164"
"Nottingham","Nottingham","52.9703","-1.1700","United Kingdom","GB","GBR","Nottingham","admin","825600","1826122597"
"Agadir","Agadir","30.4400","-9.6200","Morocco","MA","MAR","Souss-Massa","admin","825467","1504116858"
"Butterworth","Butterworth","5.4171","100.4000","Malaysia","MY","MYS","Pulau Pinang","","821652","1458469233"
"Bareilly","Bareilly","28.3454","79.4200","India","IN","IND","Uttar Pradesh","","817000","1356698199"
"Jos","Jos","9.9300","8.8900","Nigeria","NG","NGA","Plateau","admin","816824","1566773679"
"Xingyi","Xingyi","25.0904","104.8900","China","CN","CHN","Guizhou","","816000","1156255316"
"Cebu City","Cebu City","10.3200","123.9001","Philippines","PH","PHL","Cebu","admin","815000","1608136151"
"Arequipa","Arequipa","-16.4200","-71.5300","Peru","PE","PER","Arequipa","admin","815000","1604723954"
"Liverpool","Liverpool","53.4160","-2.9180","United Kingdom","GB","GBR","Liverpool","admin","811000","1826558678"
"Wuhu","Wuhu","31.3504","118.3700","China","CN","CHN","Anhui","minor","810000","1156315512"
"Langfang","Langfang","39.5204","116.6800","China","CN","CHN","Hebei","","810000","1156109017"
"Rājshāhi","Rajshahi","24.3750","88.6050","Bangladesh","BD","BGD","Rājshāhi","admin","810000","1050547831"
"Zhaotong","Zhaotong","27.3204","103.7200","China","CN","CHN","Yunnan","","809000","1156924687"
"Culiacán","Culiacan","24.8300","-107.3800","Mexico","MX","MEX","Sinaloa","admin","809000","1484516810"
"Valencia","Valencia","39.4850","-0.4000","Spain","ES","ESP","Valencia","admin","808000","1724981666"
"Lingyuan","Lingyuan","41.2400","119.4011","China","CN","CHN","Liaoning","","806000","1156184681"
"Cuiabá","Cuiaba","-15.5696","-56.0850","Brazil","BR","BRA","Mato Grosso","admin","806000","1076112309"
"Quy Nhơn","Quy Nhon","13.7800","109.1800","Vietnam","VN","VNM","Bình Định","admin","805290","1704056461"
"Malang","Malang","-7.9800","112.6100","Indonesia","ID","IDN","Jawa Timur","","805000","1360141408"
"Alīgarh","Aligarh","27.8922","78.0618","India","IN","IND","Uttar Pradesh","","805000","1356076391"
"L’viv","L'viv","49.8350","24.0300","Ukraine","UA","UKR","L’vivs’ka Oblast’","admin","803880","1804939658"
"Bordeaux","Bordeaux","44.8500","-0.5950","France","FR","FRA","Nouvelle-Aquitaine","admin","803000","1250449238"
"McAllen","McAllen","26.2273","-98.2471","United States","US","USA","Texas","","800904.0","1840021024"
"Baojishi","Baojishi","34.3800","107.1500","China","CN","CHN","Shaanxi","","800000","1156101096"
"Pekanbaru","Pekanbaru","0.5650","101.4250","Indonesia","ID","IDN","Riau","admin","799000","1360422679"
"Oran","Oran","35.7100","-0.6200","Algeria","DZ","DZA","Oran","admin","798000","1012126319"
"Yingkou","Yingkou","40.6703","122.2800","China","CN","CHN","Liaoning","minor","795000","1156257074"
"Bhiwandi","Bhiwandi","19.3500","73.1300","India","IN","IND","Mahārāshtra","","795000","1356763571"
"Liaoyang","Liaoyang","41.2800","123.1800","China","CN","CHN","Liaoning","","794000","1156202749"
"Chihuahua","Chihuahua","28.6450","-106.0850","Mexico","MX","MEX","Chihuahua","admin","793000","1484335603"
"Jammu","Jammu","32.7118","74.8467","India","IN","IND","Jammu and Kashmīr","","791000","1356491738"
"Melaka","Melaka","2.2064","102.2465","Malaysia","MY","MYS","Melaka","admin","788706","1458467506"
"Zaporizhzhya","Zaporizhzhya","47.8573","35.1768","Ukraine","UA","UKR","Zaporiz’ka Oblast’","admin","788000","1804644752"
"Morādābād","Moradabad","28.8418","78.7568","India","IN","IND","Uttar Pradesh","","787000","1356269375"
"Antalya","Antalya","36.8900","30.7000","Turkey","TR","TUR","Antalya","admin","783000","1792988434"
"Al Ḩudaydah","Al Hudaydah","14.7979","42.9530","Yemen","YE","YEM","Al Ḩudaydah","admin","780000","1887984890"
"Campo Grande","Campo Grande","-20.4500","-54.6166","Brazil","BR","BRA","Mato Grosso do Sul","admin","778000","1076660445"
"Shaoxing","Shaoxing","30.0004","120.5700","China","CN","CHN","Zhejiang","minor","777000","1156893449"
"Yichun","Yichun","47.6999","128.9000","China","CN","CHN","Heilongjiang","minor","777000","1156757274"
"Mangalore","Mangalore","12.9000","74.8500","India","IN","IND","Karnātaka","","776632","1356972351"
"Wuppertal","Wuppertal","51.2500","7.1700","Germany","DE","DEU","North Rhine-Westphalia","minor","776525","1276004611"
"Cheongju","Cheongju","36.6439","127.5012","Korea, South","KR","KOR","Chungbuk","admin","775096","1410964361"
"Zamboanga City","Zamboanga City","6.9200","122.0800","Philippines","PH","PHL","Zamboanga","admin","773000","1608189351"
"Hamhŭng","Hamhung","39.9101","127.5454","Korea, North","KP","PRK","Hamnam","admin","773000","1408482040"
"Fuyang","Fuyang","30.0533","119.9519","China","CN","CHN","Zhejiang","minor","771000","1156340393"
"Ilorin","Ilorin","8.4900","4.5500","Nigeria","NG","NGA","Kwara","admin","771000","1566480168"
"Saarbrücken","Saarbrucken","49.2504","6.9700","Germany","DE","DEU","Saarland","admin","770001","1276419711"
"Fuxin","Fuxin","42.0105","121.6600","China","CN","CHN","Liaoning","","770000","1156141954"
"Shiyan","Shiyan","32.5700","110.7800","China","CN","CHN","Hubei","minor","770000","1156383921"
"Quetta","Quetta","30.2200","67.0250","Pakistan","PK","PAK","Balochistān","admin","768000","1586556108"
"Trujillo","Trujillo","-8.1200","-79.0200","Peru","PE","PER","La Libertad","admin","765171","1604613706"
"Kananga","Kananga","-5.8900","22.4000","Congo (Kinshasa)","CD","COD","Kasaï Central","admin","765000","1180172460"
"Trabzon","Trabzon","40.9800","39.7200","Turkey","TR","TUR","Trabzon","admin","764714","1792019202"
"Jincheng","Jincheng","35.5004","112.8300","China","CN","CHN","Shanxi","minor","760000","1156163376"
"Albuquerque","Albuquerque","35.1053","-106.6464","United States","US","USA","New Mexico","","758523.0","1840019176"
"Łódź","Lodz","51.7750","19.4514","Poland","PL","POL","Łódzkie","admin","758000","1616832750"
"Kraków","Krakow","50.0600","19.9600","Poland","PL","POL","Małopolskie","admin","756000","1616172264"
"Saltillo","Saltillo","25.4200","-101.0050","Mexico","MX","MEX","Coahuila de Zaragoza","admin","754000","1484107245"
"São José dos Campos","Sao Jose dos Campos","-23.2000","-45.8799","Brazil","BR","BRA","São Paulo","","753769","1076783887"
"Hŭngnam","Hungnam","39.8231","127.6232","Korea, North","KP","PRK","Hamnam","","751322","1408328889"
"Ta‘izz","Ta`izz","13.6045","44.0394","Yemen","YE","YEM","Ta‘izz","admin","751000","1887324526"
"Pietermaritzburg","Pietermaritzburg","-29.6100","30.3900","South Africa","ZA","ZAF","KwaZulu-Natal","admin","750845","1710690280"
"Tangier","Tangier","35.7473","-5.8327","Morocco","MA","MAR","Tanger-Tétouan-Al Hoceïma","admin","750060","1504861504"
"Hsinchu","Hsinchu","24.8168","120.9767","Taiwan","TW","TWN","Hsinchu","admin","750000","1158276420"
"Changhua","Changhua","24.0734","120.5134","Taiwan","TW","TWN","Changhua","admin","750000","1158439005"
"Kolhāpur","Kolhapur","16.7000","74.2200","India","IN","IND","Mahārāshtra","","750000","1356110593"
"Farg‘ona","Farg`ona","40.3900","71.7800","Uzbekistan","UZ","UZB","Farg‘ona","admin","750000","1860479627"
"Namangan","Namangan","41.0000","71.6700","Uzbekistan","UZ","UZB","Namangan","admin","750000","1860894033"
"Liège","Liege","50.6300","5.5800","Belgium","BE","BEL","Wallonia","minor","749110","1056513284"
"Ciudad Guayana","Ciudad Guayana","8.3700","-62.6200","Venezuela","VE","VEN","Bolívar","minor","746535","1862889027"
"Birmingham","Birmingham","33.5277","-86.7987","United States","US","USA","Alabama","","744189.0","1840006507"
"Hegang","Hegang","47.4000","130.3700","China","CN","CHN","Heilongjiang","minor","743307","1156541759"
"Naga City","Naga City","13.6192","123.1814","Philippines","PH","PHL","Naga","admin","741635","1608775993"
"Gdańsk","Gdansk","54.3600","18.6400","Poland","PL","POL","Pomorskie","admin","740000","1616406372"
"Ansan","Ansan","37.3481","126.8595","Korea, South","KR","KOR","Gyeonggi","","739493","1410585171"
"Nuremberg","Nuremberg","49.4500","11.0800","Germany","DE","DEU","Bavaria","minor","737304","1276166609"
"Oyo","Oyo","7.8504","3.9300","Nigeria","NG","NGA","Oyo","minor","736072","1566930579"
"Amrāvati","Amravati","20.9500","77.7700","India","IN","IND","Mahārāshtra","","734451","1356462099"
"Denpasar","Denpasar","-8.6500","115.2200","Indonesia","ID","IDN","Bali","admin","732344","1360848527"
"Sokoto","Sokoto","13.0600","5.2400","Nigeria","NG","NGA","Sokoto","admin","732178","1566574518"
"Beihai","Beihai","21.4804","109.1000","China","CN","CHN","Guangxi","","728978","1156421449"
"Bremen","Bremen","53.0800","8.8000","Germany","DE","DEU","Bremen","admin","724909","1276376509"
"As Sulaymānīyah","As Sulaymaniyah","35.5613","45.4309","Iraq","IQ","IRQ","As Sulaymānīyah","admin","723170","1368735317"
"Hannover","Hannover","52.3670","9.7167","Germany","DE","DEU","Lower Saxony","admin","722490","1276457707"
"Cúcuta","Cucuta","7.9200","-72.5200","Colombia","CO","COL","Norte de Santander","admin","722146","1170743755"
"Hamilton","Hamilton","43.2500","-79.8300","Canada","CA","CAN","Ontario","","721053","1124567288"
"Moshi","Moshi","-3.3396","37.3400","Tanzania","TZ","TZA","Kilimanjaro","admin","721018","1834217168"
"Shaoguan","Shaoguan","24.8000","113.5800","China","CN","CHN","Guangdong","minor","720266","1156617066"
"Kumamoto","Kumamoto","32.8009","130.7006","Japan","JP","JPN","Kumamoto","admin","718232","1392106283"
"Dayton","Dayton","39.7797","-84.1998","United States","US","USA","Ohio","","718169.0","1840034249"
"Xinpu","Xinpu","34.6004","119.1700","China","CN","CHN","Jiangsu","minor","715600","1156035381"
"Acapulco de Juárez","Acapulco de Juarez","16.8500","-99.9160","Mexico","MX","MEX","Guerrero","minor","715584","1484463183"
"Kandahār","Kandahar","31.6100","65.6949","Afghanistan","AF","AFG","Kandahār","admin","715542","1004003059"
"Dehra Dūn","Dehra Dun","30.3204","78.0500","India","IN","IND","Uttarakhand","admin","714223","1356970407"
"Rochester","Rochester","43.1680","-77.6162","United States","US","USA","New York","","711998.0","1840000373"
"Jeonju","Jeonju","35.8314","127.1404","Korea, South","KR","KOR","Jeonbuk","minor","711424","1410494847"
"Samarkand","Samarkand","39.6700","66.9450","Uzbekistan","UZ","UZB","Samarqand","admin","708000","1860388706"
"Qingyuan","Qingyuan","23.7004","113.0301","China","CN","CHN","Guangdong","minor","706717","1156135890"
"Sarasota","Sarasota","27.3386","-82.5430","United States","US","USA","Florida","","706245.0","1840015988"
"Changzhi","Changzhi","36.1839","113.1053","China","CN","CHN","Shanxi","minor","706000","1156057944"
"Tol’yatti","Tol'yatti","53.4804","49.5300","Russia","RU","RUS","Samarskaya Oblast’","","702879","1643256295"
"Jaboatão","Jaboatao","-8.1100","-35.0200","Brazil","BR","BRA","Pernambuco","","702621","1076000699"
"Shizuoka","Shizuoka","34.9858","138.3854","Japan","JP","JPN","Shizuoka","admin","701561","1392235505"
"Bulawayo","Bulawayo","-20.1700","28.5800","Zimbabwe","ZW","ZWE","Bulawayo","admin","699385","1716032632"
"Soledad","Soledad","10.9200","-74.7700","Colombia","CO","COL","Atlántico","minor","698852","1170765625"
"Fresno","Fresno","36.7831","-119.7941","United States","US","USA","California","","698021.0","1840020319"
"Meknès","Meknes","33.9004","-5.5600","Morocco","MA","MAR","Fès-Meknès","","697628","1504333193"
"La Plata","La Plata","-34.9096","-57.9600","Argentina","AR","ARG","Buenos Aires","admin","694253","1032403831"
"Mālegaon","Malegaon","20.5604","74.5250","India","IN","IND","Mahārāshtra","","690844","1356113556"
"Enugu","Enugu","6.4500","7.5000","Nigeria","NG","NGA","Enugu","admin","688862","1566212729"
"Huangshi","Huangshi","30.2200","115.1000","China","CN","CHN","Hubei","minor","688090","1156234290"
"Aracaju","Aracaju","-10.9000","-37.1200","Brazil","BR","BRA","Sergipe","admin","685356","1076527830"
"Allentown","Allentown","40.5961","-75.4755","United States","US","USA","Pennsylvania","","682899.0","1840001044"
"Bonn","Bonn","50.7205","7.0800","Germany","DE","DEU","North Rhine-Westphalia","minor","680543","1276807850"
"San Pedro Sula","San Pedro Sula","15.5000","-88.0300","Honduras","HN","HND","Cortés","admin","680091","1340568412"
"Nellore","Nellore","14.4400","79.9899","India","IN","IND","Andhra Pradesh","","678004","1356280972"
"Catania","Catania","37.5000","15.0800","Italy","IT","ITA","Sicilia","minor","674542","1380562508"
"Gorakhpur","Gorakhpur","26.7504","83.3800","India","IN","IND","Uttar Pradesh","","674246","1356190221"
"Ipoh","Ipoh","4.6000","101.0650","Malaysia","MY","MYS","Perak","admin","673318","1458423505"
"Ch’ŏngjin","Ch'ongjin","41.7846","129.7900","Korea, North","KP","PRK","Hambuk","minor","672614","1408498177"
"Tulsa","Tulsa","36.1284","-95.9043","United States","US","USA","Oklahoma","","672054.0","1840021672"
"Utsunomiya","Utsunomiya","36.5500","139.8700","Japan","JP","JPN","Tochigi","admin","667752","1392506125"
"Puyang Chengguanzhen","Puyang Chengguanzhen","35.7004","114.9800","China","CN","CHN","Henan","minor","666322","1156103317"
"An Najaf","An Najaf","32.0003","44.3354","Iraq","IQ","IRQ","An Najaf","admin","665552","1368003357"
"São José dos Pinhais","Sao Jose dos Pinhais","-25.5700","-49.1800","Brazil","BR","BRA","Paraná","","665063","1076174955"
"Santo André","Santo Andre","-23.6528","-46.5278","Brazil","BR","BRA","São Paulo","","662373","1076625886"
"Bytom","Bytom","50.3500","18.9100","Poland","PL","POL","Śląskie","minor","662247","1616740907"
"Pointe-Noire","Pointe-Noire","-4.7700","11.8800","Congo (Brazzaville)","CG","COG","Pointe-Noire","admin","659084","1178411563"
"Aţ Ţā’if","At Ta'if","21.2622","40.3823","Saudi Arabia","SA","SAU","Makkah al Mukarramah","","657282","1682956102"
"Ismailia","Ismailia","30.5903","32.2600","Egypt","EG","EGY","Al Ismā‘īlīyah","admin","656135","1818532766"
"Concord","Concord","37.9722","-122.0016","United States","US","USA","California","","654770.0","1840018905"
"Shimoga","Shimoga","13.9304","75.5600","India","IN","IND","Karnātaka","","654055","1356016156"
"Biên Hòa","Bien Hoa","10.9700","106.8301","Vietnam","VN","VNM","Đồng Nai","admin","652646","1704863046"
"Xiping","Xiping","25.6005","103.8166","China","CN","CHN","Yunnan","minor","652604","1156207794"
"Kryvyy Rih","Kryvyy Rih","47.9283","33.3450","Ukraine","UA","UKR","Dnipropetrovs’ka Oblast’","minor","652380","1804544901"
"Irbid","Irbid","32.5500","35.8500","Jordan","JO","JOR","Irbid","admin","650000","1400221568"
"Tiruppūr","Tiruppur","11.0804","77.3300","India","IN","IND","Tamil Nādu ","","650000","1356539761"
"Andijon","Andijon","40.7900","72.3400","Uzbekistan","UZ","UZB","Andijon","admin","650000","1860445095"
"Krasnodar","Krasnodar","45.0200","39.0000","Russia","RU","RUS","Krasnodarskiy Kray","admin","649851","1643438227"
"Zaragoza","Zaragoza","41.6500","-0.8900","Spain","ES","ESP","Aragon","admin","649404","1724907391"
"Genoa","Genoa","44.4100","8.9300","Italy","IT","ITA","Liguria","admin","647497","1380716540"
"Diyarbakır","Diyarbakir","37.9204","40.2300","Turkey","TR","TUR","Diyarbakır","admin","644763","1792536241"
"Morelia","Morelia","19.7334","-101.1895","Mexico","MX","MEX","Michoacán de Ocampo","","644306","1484669072"
"Ul’yanovsk","Ul'yanovsk","54.3300","48.4100","Russia","RU","RUS","Ul’yanovskaya Oblast’","admin","640680","1643668944"
"Utrecht","Utrecht","52.1003","5.1200","Netherlands","NL","NLD","Utrecht","admin","640000","1528871692"
"Kikwit","Kikwit","-5.0300","18.8500","Congo (Kinshasa)","CD","COD","Kwilu","admin","637736","1180518247"
"Al Hufūf","Al Hufuf","25.3487","49.5856","Saudi Arabia","SA","SAU","Ash Sharqīyah","","637389","1682958157"
"Yogyakarta","Yogyakarta","-7.7800","110.3750","Indonesia","ID","IDN","Yogyakarta","admin","636660","1360384833"
"Wrocław","Wroclaw","51.1104","17.0300","Poland","PL","POL","Dolnośląskie","admin","634893","1616108520"
"Winnipeg","Winnipeg","49.8830","-97.1660","Canada","CA","CAN","Manitoba","admin","632063","1124224963"
"Izhevsk","Izhevsk","56.8500","53.2300","Russia","RU","RUS","Udmurtiya","admin","631038","1643983138"
"Cape Coral","Cape Coral","26.6445","-81.9955","United States","US","USA","Florida","","630134.0","1840015130"
"Springfield","Springfield","42.1155","-72.5395","United States","US","USA","Massachusetts","","628076.0","1840000466"
"Zhuozhou","Zhuozhou","39.5401","115.7900","China","CN","CHN","Hebei","","628000","1156045160"
"Raurkela","Raurkela","22.2304","84.8300","India","IN","IND","Odisha","","625831","1356096816"
"Québec","Quebec","46.8400","-71.2456","Canada","CA","CAN","Québec","admin","624177","1124823933"
"Poznań","Poznan","52.4058","16.8999","Poland","PL","POL","Wielkopolskie","admin","623997","1616725607"
"Colorado Springs","Colorado Springs","38.8674","-104.7606","United States","US","USA","Colorado","","623946.0","1840018825"
"Port Said","Port Said","31.2600","32.2900","Egypt","EG","EGY","Būr Sa‘īd","admin","623864","1818628574"
"Nānded","Nanded","19.1700","77.3000","India","IN","IND","Mahārāshtra","","623708","1356722310"
"Bannu","Bannu","32.9890","70.5986","Pakistan","PK","PAK","Khyber Pakhtunkhwa","minor","622419","1586858934"
"Southend-on-Sea","Southend-on-Sea","51.5500","0.7200","United Kingdom","GB","GBR","Southend-on-Sea","admin","618386","1826524208"
"Dresden","Dresden","51.0500","13.7500","Germany","DE","DEU","Saxony","admin","617515","1276561036"
"Wiesbaden","Wiesbaden","50.0804","8.2500","Germany","DE","DEU","Hesse","admin","617126","1276652118"
"Charleston","Charleston","32.8151","-79.9630","United States","US","USA","South Carolina","","616085.0","1840015163"
"Changping","Changping","40.2248","116.1944","China","CN","CHN","Beijing","","614821","1156166828"
"Palu","Palu","-0.9070","119.8330","Indonesia","ID","IDN","Sulawesi Tengah","admin","612445","1360518272"
"Taizhou","Taizhou","32.4904","119.9000","China","CN","CHN","Jiangsu","minor","612356","1156119229"
"Xingtai","Xingtai","37.0500","114.5000","China","CN","CHN","Hebei","","611739","1156294952"
"Samsun","Samsun","41.2800","36.3437","Turkey","TR","TUR","Samsun","admin","609339","1792169057"
"Luxor","Luxor","25.7000","32.6500","Egypt","EG","EGY","Al Uqşur","admin","609248","1818948225"
"Belgaum","Belgaum","15.8650","74.5050","India","IN","IND","Karnātaka","","608756","1356390535"
"Pontianak","Pontianak","-0.0300","109.3200","Indonesia","ID","IDN","Kalimantan Barat","admin","607311","1360992394"
"Yaroslavl’","Yaroslavl'","57.6200","39.8700","Russia","RU","RUS","Yaroslavskaya Oblast’","admin","606730","1643338528"
"Constantine","Constantine","36.3600","6.5999","Algeria","DZ","DZA","Constantine","admin","605179","1012275076"
"Banjarmasin","Banjarmasin","-3.3300","114.5801","Indonesia","ID","IDN","Kalimantan Selatan","admin","603576","1360685223"
"Grand Rapids","Grand Rapids","42.9615","-85.6557","United States","US","USA","Michigan","","602694.0","1840002928"
"Kirkuk","Kirkuk","35.4722","44.3923","Iraq","IQ","IRQ","Kirkūk","admin","601433","1368344172"
"Sāngli","Sangli","16.8604","74.5750","India","IN","IND","Mahārāshtra","","601214","1356921375"
"Barcelona","Barcelona","10.1304","-64.7200","Venezuela","VE","VEN","Anzoátegui","admin","600954","1862418619"
"Mission Viejo","Mission Viejo","33.6095","-117.6550","United States","US","USA","California","","600474.0","1840020580"
"Sūhāj","Suhaj","26.5504","31.7000","Egypt","EG","EGY","Sūhāj","admin","600000","1818460403"
"Al Manşūrah","Al Mansurah","31.0504","31.3800","Egypt","EG","EGY","Ad Daqahlīyah","admin","600000","1818255319"
"Canoas","Canoas","-29.9200","-51.1800","Brazil","BR","BRA","Rio Grande do Sul","","600000","1076009922"
"Barnaul","Barnaul","53.3550","83.7450","Russia","RU","RUS","Altayskiy Kray","admin","599579","1643318931"
"Zāhedān","Zahedan","29.5000","60.8300","Iran","IR","IRN","Sīstān va Balūchestān","admin","598887","1364072353"
"Jalālābād","Jalalabad","34.4415","70.4361","Afghanistan","AF","AFG","Nangarhār","admin","597971","1004315012"
"Albany","Albany","42.6664","-73.7987","United States","US","USA","New York","admin","597270.0","1840000417"
"Chiclayo","Chiclayo","-6.7629","-79.8366","Peru","PE","PER","Lambayeque","admin","596792","1604799615"
"Hermosillo","Hermosillo","29.0989","-110.9541","Mexico","MX","MEX","Sonora","admin","595811","1484015319"
"Chānda","Chanda","19.9700","79.3000","India","IN","IND","Mahārāshtra","","595118","1356592607"
"Al Ḩillah","Al Hillah","32.4721","44.4217","Iraq","IQ","IRQ","Bābil","admin","594605","1368916692"
"Al Ḩillah","Al Hillah","23.4895","46.7564","Saudi Arabia","SA","SAU","Ar Riyāḑ","","594605","1682494753"
"Rasht","Rasht","37.3000","49.6300","Iran","IR","IRN","Gīlān","admin","594590","1364630382"
"Nagano","Nagano","36.6500","138.1700","Japan","JP","JPN","Nagano","admin","594311","1392603439"
"Vinh","Vinh","18.7000","105.6800","Vietnam","VN","VNM","Nghệ An","admin","593645","1704960059"
"Abeokuta","Abeokuta","7.1604","3.3500","Nigeria","NG","NGA","Ogun","admin","593100","1566979497"
"Kayseri","Kayseri","38.7350","35.4900","Turkey","TR","TUR","Kayseri","admin","592840","1792945815"
"Samarinda","Samarinda","-0.5000","117.1500","Indonesia","ID","IDN","Kalimantan Timur","admin","592228","1360684979"
"Ajmer","Ajmer","26.4500","74.6400","India","IN","IND","Rājasthān","","589985","1356058258"
"Dortmund","Dortmund","51.5300","7.4500","Germany","DE","DEU","North Rhine-Westphalia","minor","588462","1276562886"
